city,lat,lng,max temperature,humidity,cloudiness,wind speed,country,date
dhaka,23.7861979,90.4026151,82.38,78.0,40.0,4.61,BD,1659133497.0
kodiak,57.79,-152.4072222,56.71,88.0,100.0,10.36,US,1659133258.0
dikson,73.5083894,80.5123816,40.98,96.0,100.0,16.42,RU,1659133498.0
luwuk,-0.9528231,122.7880198,75.42,94.0,99.0,3.98,ID,1659133498.0
port alfred,-33.5981844,26.8914772,59.22,79.0,15.0,12.71,ZA,1659133499.0
ushuaia,-54.806115899999995,-68.3184972880496,38.89,56.0,100.0,23.02,AR,1659133499.0
albany,42.6511674,-73.754968,88.56,48.0,20.0,12.66,US,1659132911.0
rikitea,-23.1229544,-134.9680141,73.2,72.0,9.0,18.7,PF,1659133500.0
vaitupu,-7.4769458,178.6807836433052,82.26,73.0,94.0,18.88,TV,1659133500.0
mahebourg,-20.4111041,57.7060616,68.38,88.0,40.0,17.27,MU,1659133501.0
magrath,49.4203199,-112.863749,87.53,42.0,59.0,3.44,CA,1659133501.0
lodja,-3.5241628,23.5995098,72.21,72.0,77.0,3.2,CD,1659133501.0
arraial do cabo,-22.9662839,-42.024427,66.09,88.0,100.0,13.8,BR,1659133502.0
rivera,-30.900058,-55.5408151,47.66,76.0,0.0,6.15,UY,1659133503.0
luanda,-8.8272699,13.2439512,69.84,88.0,75.0,6.91,AO,1659133503.0
punta arenas,-53.1625688,-70.907822,39.49,81.0,40.0,35.68,CL,1659133504.0
carnarvon,-24.8826131,113.6576486,63.91,78.0,99.0,18.39,AU,1659133504.0
puerto ayora,-0.7471674,-90.3134198,77.61,92.0,86.0,8.01,EC,1659133505.0
caravelas,-17.7296514,-39.2660082,73.13,80.0,36.0,10.92,BR,1659133505.0
nanortalik,60.1400246,-45.2428523,46.22,84.0,98.0,11.92,GL,1659133505.0
tambura,15.0987165,74.9296219,73.83,93.0,87.0,2.71,IN,1659133506.0
vaini,-21.1925671,-175.1772797,79.09,89.0,40.0,13.8,TO,1659133506.0
leningradskiy,54.129108,79.236702,62.6,86.0,33.0,11.41,RU,1659133507.0
asau,46.4388969,26.4008405,65.28,89.0,95.0,3.29,RO,1659133507.0
hobart,-42.8825088,147.3281233,41.02,87.0,20.0,6.91,AU,1659133338.0
butaritari,2.9205375,172.91886331442205,82.15,74.0,4.0,14.56,KI,1659133508.0
roald,62.5838286,6.1241844,58.91,93.0,40.0,2.3,NO,1659133509.0
barrow,71.2905556,-156.788611,37.42,87.0,100.0,5.75,US,1659133509.0
nikolskoye,59.7034799,30.7861084,60.8,91.0,99.0,8.41,RU,1659133447.0
mount isa,-20.7289898,139.4931522,58.86,41.0,4.0,9.22,AU,1659133510.0
severo-kurilsk,50.6683048,156.1154399,54.45,87.0,98.0,10.94,RU,1659133510.0
myitkyina,25.3833313,97.3999925,75.11,99.0,100.0,1.41,MM,1659133511.0
kalmunai,7.4131557,81.8269327,78.96,81.0,100.0,8.16,LK,1659133511.0
antofagasta,-23.6463741,-70.3980033,56.59,83.0,57.0,4.43,CL,1659133512.0
bengkulu,-3.7922858,102.2623797,75.42,77.0,100.0,4.03,ID,1659133512.0
bonthe,7.527274,-12.501955,75.69,71.0,99.0,7.18,SL,1659133513.0
am timan,11.0396368,20.2826429,70.75,94.0,96.0,4.81,TD,1659133513.0
kahului,20.8894101,-156.4727118,89.58,48.0,20.0,16.11,US,1659133513.0
mangrol,21.575642,72.8565391,81.25,83.0,99.0,7.74,IN,1659133514.0
bilma,18.69293,12.91872,91.24,28.0,31.0,6.78,NE,1659133514.0
rapar,23.57215,70.6465877045134,80.22,80.0,13.0,14.32,IN,1659133515.0
saint-philippe,45.3584499,-73.4790045,79.21,53.0,40.0,16.11,CA,1659133515.0
mataura,-46.192734,168.8642685,39.47,93.0,84.0,0.87,NZ,1659133506.0
bonavista,48.6541763,-53.110338,57.15,83.0,88.0,12.41,CA,1659133516.0
bubaque,11.29969595,-15.833543367212418,79.25,79.0,92.0,17.27,GW,1659133516.0
bluff,-46.6014038,168.3398682,39.92,82.0,96.0,5.99,NZ,1659133517.0
kapaa,22.0747334,-159.3191601,83.48,64.0,20.0,11.5,US,1659133517.0
yellowknife,62.4540807,-114.377385,69.98,37.0,75.0,9.22,CA,1659133517.0
gravdal,68.1188562,13.5592962,53.91,86.0,54.0,4.94,NO,1659133518.0
ahipara,-35.1664105,173.1562074,58.46,72.0,22.0,11.12,NZ,1659133518.0
halalo,-13.3447142,-176.2136238,81.34,76.0,7.0,20.29,WF,1659133519.0
jamestown,37.2104434,-76.7738928,86.0,89.0,75.0,21.85,US,1659133519.0
reconquista,-29.1443478,-59.6437728,54.72,44.0,12.0,1.68,AR,1659133520.0
cape town,-33.928992,18.417396,51.89,88.0,20.0,4.61,ZA,1659133520.0
norman wells,65.282401,-126.832725,62.64,48.0,75.0,6.91,CA,1659133520.0
chokurdakh,70.6193824,147.902397,51.62,81.0,100.0,9.84,RU,1659133521.0
amderma,69.7522076,61.662267280204404,41.56,93.0,42.0,6.06,RU,1659133521.0
thompson,55.743347,-97.863464,69.98,68.0,100.0,9.22,CA,1659133522.0
rio gallegos,-51.64607595,-69.26322885452636,41.07,56.0,0.0,34.52,AR,1659133522.0
kaka,32.5097805,-112.3165308,80.42,61.0,85.0,14.0,US,1659133523.0
hithadhoo,1.7959425,73.38755195657038,81.14,78.0,100.0,17.54,MV,1659133523.0
kodino,63.719124,39.636375,59.54,99.0,100.0,3.8,RU,1659133524.0
chuy,-33.6937948,-53.4561114,47.35,87.0,0.0,5.75,BR,1659133524.0
illoqqortoormiut,70.4850588,-21.9641992,36.72,98.0,61.0,3.89,GL,1659133525.0
saint-augustin,48.7858921,3.0292059,73.15,48.0,59.0,7.58,FR,1659133525.0
victoria,48.4283182,-123.3649533,91.65,60.0,20.0,8.05,CA,1659133525.0
ancud,-41.8682162,-73.8287225,49.6,87.0,63.0,4.76,CL,1659133526.0
barentsburg,78.065362,14.2172367,47.8,95.0,100.0,9.31,SJ,1659133526.0
puerto escondido,15.8693331,-97.0726428,82.11,65.0,100.0,5.75,MX,1659133527.0
akyab,20.15,92.9,82.42,81.0,100.0,5.82,MM,1659133527.0
chimbote,-9.0744966,-78.593609,64.54,76.0,7.0,10.29,PE,1659133528.0
mar del plata,-37.9977225,-57.5482703,57.16,81.0,0.0,5.01,AR,1659133528.0
besikduzu,41.0527305,39.2280377,73.49,85.0,0.0,3.83,TR,1659133528.0
rundu,-17.913716,19.7672535,58.55,32.0,9.0,4.56,NA,1659133529.0
deputatskiy,54.8408485,61.1269918,59.68,79.0,100.0,7.61,RU,1659133529.0
georgetown,6.8137426,-58.1624465,82.38,83.0,20.0,4.61,GY,1659133530.0
iqaluit,63.74944,-68.521857,49.95,71.0,100.0,6.91,CA,1659133530.0
gorontalo,0.5384433,123.0594971,74.46,96.0,100.0,3.96,ID,1659133531.0
tautira,-27.145219,-109.430579,68.76,64.0,20.0,9.22,CL,1659133531.0
busselton,-33.644499,115.3488754,51.19,66.0,98.0,22.62,AU,1659133531.0
pacific grove,36.6211149,-121.9177944,77.81,76.0,40.0,10.36,US,1659133532.0
umm durman,15.6445536,32.4777311,84.92,61.0,39.0,9.55,SD,1659133532.0
bethel,60.7922222,-161.7558333,68.34,52.0,0.0,8.05,US,1659133533.0
little current,45.9800486,-81.9267993,67.41,76.0,50.0,17.6,CA,1659133533.0
penzance,50.1213173,-5.5329266,63.39,88.0,84.0,6.96,GB,1659133534.0
coari,-4.0885957,-63.1431166,83.34,50.0,18.0,1.43,BR,1659133534.0
kidal,18.4408358,1.4075395,89.62,41.0,51.0,4.85,ML,1659133535.0
flinders,-20.862898,144.2526073309786,54.03,75.0,0.0,16.02,AU,1659133535.0
ponta do sol,32.681067,-17.104073,74.7,82.0,2.0,4.61,PT,1659133536.0
pirganj,25.416289,89.3164095,79.86,88.0,85.0,5.88,BD,1659133536.0
awbari,26.5909391,12.7695658,88.32,14.0,0.0,7.96,LY,1659133537.0
north bend,47.4959464,-121.7851542,96.84,48.0,0.0,7.0,US,1659133511.0
katsuura,35.1521846,140.3207449,81.07,85.0,4.0,12.03,JP,1659133537.0
rocha,46.6705431,-1.4269698,64.62,82.0,0.0,4.61,FR,1659133538.0
ruatoria,-37.8919955,178.3187514,55.98,67.0,100.0,4.12,NZ,1659133538.0
avarua,-21.2074736,-159.7708145,76.98,78.0,75.0,12.66,CK,1659133539.0
gigmoto,13.7786693,124.3911728,80.62,87.0,100.0,8.88,PH,1659133539.0
alamor,-4.4788324,-80.4000864,86.0,40.0,4.0,12.01,PE,1659133540.0
vestmannaeyjar,63.42704985,-20.269317184750797,50.86,76.0,100.0,18.01,IS,1659133540.0
pafos,34.7743988,32.4231586,74.37,57.0,0.0,10.36,CY,1659133540.0
atuona,-9.77932315,-139.06194910808324,67.21,73.0,17.0,21.65,PF,1659133541.0
kuragino,53.888092,92.680222,57.51,91.0,54.0,2.1,RU,1659133541.0
labuhan,-6.891973,112.9897177,75.51,86.0,71.0,7.45,ID,1659133542.0
adre,13.4664563,22.1977187,70.93,89.0,100.0,1.05,TD,1659133542.0
saldanha,-32.9977778,17.9455556,48.47,66.0,95.0,2.51,ZA,1659133543.0
lebu,-37.6099644,-73.6559477,48.96,83.0,16.0,20.33,CL,1659133543.0
moberly,39.4201137,-92.4364298,80.42,56.0,0.0,5.75,US,1659133543.0
meulaboh,4.1481951,96.1339107,75.54,86.0,100.0,2.37,ID,1659133544.0
comodoro rivadavia,-45.8632024,-67.4752615,50.45,57.0,0.0,8.05,AR,1659133544.0
samusu,-13.9974088,-171.4288872,80.13,79.0,29.0,19.95,WS,1659133545.0
cabo san lucas,22.8938884,-109.9200604,94.1,40.0,20.0,14.97,MX,1659133545.0
palabuhanratu,-6.9882409,106.5503728,76.42,91.0,100.0,3.13,ID,1659133546.0
pisco,-13.7099813,-76.2029793,62.49,77.0,100.0,4.61,PE,1659133546.0
upernavik,72.7847392,-56.1469625,42.84,88.0,100.0,7.38,GL,1659133547.0
tanout,14.97119,8.878363,87.24,42.0,0.0,9.04,NE,1659133547.0
karratha,-20.7370067,116.8478592,65.98,53.0,6.0,2.01,AU,1659133547.0
syamzha,60.0178626,41.07546242715689,53.76,94.0,28.0,4.05,RU,1659133548.0
hofn,64.2532647,-15.2080441,47.75,77.0,100.0,23.26,IS,1659133548.0
ayios matthaios,39.4939685,19.8728635,75.38,47.0,0.0,3.44,GR,1659133549.0
zaraza,9.3502541,-65.3249956,77.86,84.0,84.0,4.79,VE,1659133549.0
benicarlo,40.4180244,0.4229813,78.89,82.0,25.0,1.9,ES,1659133550.0
grand gaube,-20.0086191,57.6644156,68.4,76.0,86.0,5.99,MU,1659133550.0
tiksi,71.636604,128.868546,47.98,84.0,100.0,5.48,RU,1659133550.0
sao gabriel da cachoeira,-0.1249715,-67.0813855,77.18,86.0,85.0,2.15,BR,1659133551.0
taoudenni,22.6762333,-3.9805269,105.49,14.0,50.0,11.32,ML,1659133551.0
troitskoye,55.2468939,37.6270931,62.91,94.0,36.0,6.06,RU,1659133552.0
saint-pierre,48.3832725,7.4718731,71.69,61.0,50.0,4.12,FR,1659133552.0
ribeira grande,37.8225227,-25.5194914,71.94,83.0,20.0,9.22,PT,1659133553.0
belmonte,39.5592831,-2.7038117,74.53,29.0,0.0,7.67,ES,1659133553.0
muros,40.678061,8.617315,73.85,74.0,0.0,1.95,IT,1659133554.0
golfito,8.6389291,-83.1684777,80.78,84.0,84.0,4.25,CR,1659133554.0
bafq,31.5997065,55.3966892,87.06,39.0,100.0,9.89,IR,1659133555.0
fort nelson,58.8062066,-122.6942704,58.64,94.0,100.0,6.91,CA,1659133555.0
kavieng,-2.573474,150.795224,82.51,67.0,50.0,12.15,PG,1659133555.0
sandane,8.40685,17.5976667,70.14,97.0,100.0,1.59,TD,1659133556.0
ambovombe,-25.178398,46.0877489,65.26,88.0,9.0,9.35,MG,1659133557.0
ilulissat,69.2197127,-51.0986385,50.29,66.0,75.0,4.61,GL,1659133557.0
jalu,29.0331149,21.5482209,83.91,44.0,0.0,12.12,LY,1659133557.0
kirakira,-10.4568963,161.9201736,81.64,76.0,98.0,5.08,SB,1659133558.0
egvekinot,66.3227382,-179.1201311,54.55,56.0,11.0,3.8,RU,1659133558.0
almaznyy,48.030155,40.039642,71.42,63.0,67.0,11.21,RU,1659133559.0
grand river south east,-20.2907247,57.7851931,68.5,88.0,40.0,17.27,MU,1659133559.0
lorengau,-2.0329567,147.2789185,83.26,70.0,81.0,11.25,PG,1659133560.0
isangel,-19.5410863,169.2810885,78.03,83.0,100.0,6.91,VU,1659133560.0
port hueneme,34.1477558,-119.1951559,95.79,63.0,0.0,12.66,US,1659133561.0
babu,24.4155435,111.5464663,76.66,84.0,26.0,2.01,CN,1659133561.0
cayenne,4.9371143,-52.3258307,81.07,1.0,75.0,0.0,GF,1659133562.0
vila franca do campo,37.7171624,-25.4335352,72.01,74.0,82.0,3.65,PT,1659133562.0
nogent-le-rotrou,48.321809,0.8211488,70.52,47.0,43.0,2.3,FR,1659133562.0
manokwari,-0.8614456,134.0767324,79.95,75.0,99.0,3.29,ID,1659133563.0
port elizabeth,-33.9617051,25.6207519,55.51,82.0,20.0,19.57,ZA,1659133563.0
torbay,47.6576953,-52.726986,60.1,86.0,100.0,9.22,CA,1659133564.0
qaanaaq,77.4686357,-69.2222746,40.37,61.0,2.0,0.67,GL,1659133564.0
shache,38.4170434,77.2411446,79.72,22.0,90.0,8.63,CN,1659133565.0
zihuatanejo,17.6467874,-101.5519746,89.51,62.0,40.0,6.91,MX,1659133565.0
portland,45.5202471,-122.6741949,102.49,41.0,20.0,8.05,US,1659133566.0
portobelo,9.5538162,-79.6549259,83.41,82.0,90.0,4.85,PA,1659133566.0
hilo,19.7073734,-155.0815803,88.2,82.0,100.0,11.5,US,1659133566.0
tubruq,32.0773764,23.9599988,78.1,78.0,0.0,13.65,LY,1659133567.0
dabola,10.742172,-11.106486,71.31,92.0,89.0,3.49,GN,1659133567.0
sault sainte marie,46.52391,-84.320068,64.63,81.0,100.0,14.97,CA,1659133568.0
cascais,38.72240025,-9.396909171649877,69.91,75.0,17.0,30.0,PT,1659133568.0
airai,-8.92655,125.40922,53.4,86.0,42.0,3.2,TL,1659133569.0
sao joao da barra,-21.6348588,-41.0487079,72.64,80.0,16.0,22.95,BR,1659133569.0
seydi,13.33933,7.7492057,84.45,49.0,24.0,8.12,NG,1659133569.0
vasteras,59.6110992,16.5463679,57.94,76.0,75.0,0.0,SE,1659133570.0
la crosse,43.8014053,-91.2395429,78.91,56.0,6.0,1.01,US,1659133312.0
oktyabrskiy,55.6086034,37.9743705,63.48,72.0,0.0,0.0,RU,1659133571.0
mosquera,2.5073167,-78.4532072,80.08,79.0,86.0,9.17,CO,1659133571.0
zeya,53.7403584,127.2716246,68.85,91.0,25.0,0.69,RU,1659133572.0
puerto lopez,4.0891674,-72.96059024775572,80.42,85.0,58.0,1.74,CO,1659133572.0
faanui,-16.48243875,-151.73383197031578,78.26,70.0,17.0,25.1,PF,1659133572.0
longyearbyen,78.2231558,15.6463656,48.47,81.0,75.0,2.3,SJ,1659133573.0
perpignan,42.6985304,2.8953121,77.0,58.0,0.0,14.97,FR,1659133573.0
bonfim,3.3613818,-59.8427241,76.1,90.0,97.0,3.2,GY,1659133574.0
stornoway,58.20842,-6.3881077,58.93,97.0,100.0,17.27,GB,1659133574.0
katobu,-4.9408066,122.5275567,73.38,88.0,98.0,3.29,ID,1659133575.0
tarko-sale,64.9219991,77.779459,62.17,75.0,23.0,7.9,RU,1659133575.0
shelburne,44.3783486,-73.2276183,83.08,47.0,20.0,13.8,US,1659133576.0
uwayl,8.7693352,27.3962085,71.28,87.0,64.0,4.61,SS,1659133576.0
kruisfontein,-34.0119558,24.7433295,54.46,76.0,98.0,16.69,ZA,1659133576.0
boende,-0.2836634,20.8826368,71.76,90.0,91.0,2.42,CD,1659133577.0
sorland,67.6660386,12.69192,53.46,88.0,22.0,8.3,NO,1659133578.0
wajima,37.3905644,136.8994281,81.25,81.0,1.0,3.06,JP,1659133578.0
nogliki,51.7953617,143.1365077,62.64,96.0,100.0,5.59,RU,1659133578.0
jacmel,18.2352587,-72.5375127,87.82,65.0,18.0,5.84,HT,1659133579.0
twentynine palms,34.1356915,-116.0543506,100.2,30.0,61.0,5.99,US,1659133471.0
lompoc,34.6391501,-120.4579409,77.85,70.0,0.0,14.97,US,1659133580.0
guerrero negro,27.9709506,-114.036389,79.86,52.0,85.0,13.42,MX,1659133580.0
cidreira,-30.1657063,-50.218331,54.32,73.0,93.0,13.87,BR,1659133581.0
hasaki,35.7529706,140.8201321,82.8,85.0,2.0,4.88,JP,1659133582.0
tsihombe,-25.318547,45.484057,66.24,89.0,33.0,8.95,MG,1659133582.0
grojec,50.086162,19.5662438,67.17,88.0,0.0,5.75,PL,1659133583.0
bhatkal,13.9873619,74.5544089,80.35,93.0,99.0,7.85,IN,1659133583.0
dakar,14.693425,-17.447938,83.28,78.0,40.0,18.41,SN,1659133583.0
constitucion,-35.3318306,-72.4118998,52.63,76.0,82.0,8.14,CL,1659133584.0
imeni poliny osipenko,52.422848,136.48938,69.58,99.0,100.0,4.38,RU,1659133584.0
narsaq,60.9127453,-46.0452698,61.05,71.0,87.0,4.34,GL,1659133585.0
todos santos,23.450067,-110.225374,94.3,61.0,45.0,6.91,MX,1659133585.0
karaul,58.2762328,48.306824,61.97,73.0,74.0,5.64,RU,1659133586.0
henties bay,-22.1130313,14.2881683522115,54.01,86.0,47.0,9.89,NA,1659133586.0
viedma,-40.8084274,-62.994722,54.81,39.0,0.0,5.77,AR,1659133587.0
port hardy,50.7244402,-127.4976081,67.98,73.0,0.0,8.05,CA,1659133587.0
scarborough,54.2820009,-0.4011868,58.96,82.0,73.0,15.01,GB,1659133588.0
te anau,-45.41449,167.717489,37.74,89.0,98.0,1.01,NZ,1659133588.0
saskylakh,71.9649533,114.0939433,62.67,67.0,70.0,3.65,RU,1659133588.0
findlay,41.0413873,-83.6503982,80.74,44.0,0.0,10.36,US,1659133589.0
fougamou,-1.2164737,10.591374,72.27,82.0,47.0,2.73,GA,1659133589.0
kaitangata,-46.2817388,169.8464139,38.62,78.0,69.0,4.07,NZ,1659133590.0
bredasdorp,-34.533055,20.042778,51.4,67.0,96.0,6.29,ZA,1659133590.0
sale,44.980656,8.809348,69.93,89.0,44.0,3.31,IT,1659133591.0
dongsheng,39.822062,109.9576815,67.48,59.0,70.0,20.51,CN,1659133591.0
ust-maya,60.416439,134.536499,70.43,68.0,100.0,3.62,RU,1659133591.0
savannah bight,16.4856602,-85.8454018,82.22,78.0,13.0,20.29,HN,1659133592.0
tasiilaq,65.6152573,-37.6378149,43.3,77.0,70.0,3.44,GL,1659133592.0
yasnyy,47.14159,40.15799,81.55,48.0,85.0,10.58,RU,1659133593.0
umm kaddadah,13.6002208,26.6892786,84.79,49.0,84.0,13.22,SD,1659133593.0
kati,12.7389091,-8.0684052,74.35,85.0,100.0,3.18,ML,1659133594.0
rawannawi,2.0520799,173.2627529,81.7,76.0,7.0,16.17,KI,1659133594.0
ipua,-20.4441839,-48.012504,74.7,33.0,18.0,6.71,BR,1659133594.0
guaymas,27.9216441,-110.8994059,93.22,66.0,100.0,11.5,MX,1659133595.0
amapa,21.7844465,-105.254711,89.87,57.0,97.0,9.57,MX,1659133595.0
vao,58.93963145,25.97080937451389,50.31,94.0,12.0,5.91,EE,1659133596.0
souillac,44.8980172,1.46943,68.11,65.0,29.0,4.61,FR,1659133596.0
calvinia,-31.469444,19.777222,46.27,88.0,100.0,4.27,ZA,1659133597.0
geraldton,-28.77035,114.6147159,53.76,71.0,40.0,8.05,AU,1659133597.0
morristown,40.7970382,-74.4809868,84.9,68.0,100.0,8.05,US,1659133598.0
batagay-alyta,67.799362,130.403229,61.32,86.0,100.0,3.44,RU,1659133598.0
hermanus,-34.4175,19.2361111,48.83,68.0,100.0,11.63,ZA,1659133599.0
grand centre,38.6416618,-90.2308265,84.25,49.0,0.0,11.5,US,1659133599.0
mount gambier,-37.8246698,140.7820067624113,41.52,72.0,3.0,10.71,AU,1659133600.0
sitka,57.0524973,-135.337612,58.82,88.0,100.0,3.44,US,1659133600.0
dolinsk,47.3241456,142.7979361,67.68,80.0,93.0,7.58,RU,1659133601.0
camacupa,-12.0203585,17.4763605,59.9,27.0,4.0,0.11,AO,1659133601.0
mys shmidta,68.8928813,-179.4130958,39.2,84.0,99.0,4.14,RU,1659133601.0
mao,31.6835463,103.8502229,63.66,95.0,98.0,3.56,CN,1659133602.0
great yarmouth,52.6071742,1.7314845,62.94,76.0,23.0,5.79,GB,1659133602.0
gulshat,46.630707,74.359215,71.46,57.0,74.0,10.31,KZ,1659133603.0
tupik,54.426773,119.94368,58.89,83.0,66.0,2.1,RU,1659133603.0
belokurikha,51.9994856,84.9860861,61.25,81.0,100.0,5.01,RU,1659133604.0
tevaitoa,-16.78176695,-151.47083353757228,76.82,73.0,13.0,25.32,PF,1659133604.0
provideniya,64.4238198,-173.2275013,52.07,61.0,100.0,4.54,RU,1659133605.0
fevralsk,52.45705,130.852829,67.44,97.0,71.0,2.44,RU,1659133605.0
new norfolk,-42.7801998,147.0615332,40.95,84.0,59.0,1.01,AU,1659133606.0
copiapo,-27.3664685,-70.3322753,51.49,54.0,33.0,3.56,CL,1659133607.0
moose factory,51.2602173,-80.6032819,62.62,94.0,100.0,9.22,CA,1659133607.0
castro,45.802987,10.06706,70.86,82.0,99.0,5.64,IT,1659133608.0
attawapiskat,52.9244075,-82.4270112,69.8,60.0,100.0,6.91,CA,1659133608.0
raga,11.80501475,10.530188496056002,77.18,72.0,53.0,8.43,NG,1659133609.0
dawlatabad,36.4204275,64.8975266,83.57,23.0,99.0,1.61,AF,1659133609.0
alekseyevsk,57.840553,108.349243,59.02,87.0,100.0,3.09,RU,1659133609.0
ponta delgada,37.7394344,-25.6683618,72.32,83.0,20.0,9.22,PT,1659133610.0
fonte boa,-2.55,-66.91321428571428,77.65,84.0,85.0,1.99,BR,1659133611.0
olga,45.107044,7.273613,71.04,84.0,3.0,8.93,IT,1659133611.0
mujiayingzi,41.9698397,118.9709585,65.08,89.0,1.0,4.16,CN,1659133611.0
east london,-33.0191604,27.8998573,62.37,63.0,3.0,6.51,ZA,1659133612.0
vilani,56.5549602,26.9288591,48.96,87.0,0.0,5.26,LV,1659133612.0
berlevag,70.79904505,29.150528646532546,45.81,81.0,11.0,10.36,NO,1659133613.0
vikulovo,55.0748472,40.9568119,61.5,70.0,39.0,4.59,RU,1659133613.0
whitehorse,60.721571,-135.054932,70.02,41.0,75.0,4.61,CA,1659133614.0
saint-joseph,49.5344534,-1.529802,61.36,100.0,100.0,8.05,FR,1659133614.0
maniitsoq,65.4175454,-52.8967885,43.48,87.0,100.0,14.83,GL,1659133614.0
ostrovnoy,68.0544447,39.5129384,46.47,97.0,100.0,23.04,RU,1659133615.0
trofors,65.5387083,13.3864306,55.24,66.0,23.0,3.42,NO,1659133615.0
illapel,-31.6327015,-71.1683498,58.26,72.0,100.0,3.04,CL,1659133616.0
aneho,6.2288772,1.5938066,77.14,78.0,77.0,12.44,TG,1659133616.0
tomatlan,19.9429848,-105.2465108,87.87,60.0,47.0,8.63,MX,1659133617.0
truth or consequences,33.1283485,-107.2529059,90.91,34.0,20.0,13.8,US,1659133617.0
saint anthony,45.0283001,-93.2187368,81.59,43.0,75.0,12.66,US,1659133618.0
turochak,52.259956,87.117538,56.55,95.0,54.0,2.13,RU,1659133618.0
smidovich,48.5956701,133.8138369,73.47,94.0,24.0,14.29,RU,1659133619.0
port macquarie,-31.4299499,152.9103525,48.83,73.0,75.0,8.57,AU,1659133619.0
pinehurst,30.1071543,-93.7746117,93.18,66.0,0.0,13.8,US,1659133619.0
gijon,43.5450394,-5.6626443,70.0,85.0,71.0,0.78,ES,1659133620.0
lerwick,60.1531357,-1.1427296,57.22,88.0,23.0,24.58,GB,1659133620.0
kamenskoye,53.1793307,37.7767378,62.62,68.0,90.0,6.13,RU,1659133621.0
pevek,69.7028171,170.2746851,43.74,77.0,21.0,16.2,RU,1659133621.0
korla,41.7238743,86.173541,80.11,27.0,98.0,15.57,CN,1659133622.0
kalengwa,-13.4669084,25.0030652,53.69,46.0,3.0,4.38,ZM,1659133622.0
sao filipe,14.8952963,-24.4969361,77.36,79.0,80.0,9.57,CV,1659133623.0
astoria,46.187885,-123.831256,74.43,76.0,0.0,6.91,US,1659133623.0
vilhena,-12.7368536,-60.1465555,80.74,44.0,0.0,10.36,BR,1659133624.0
axim,4.865362,-2.242169,74.86,78.0,98.0,8.77,GH,1659133624.0
terrace,54.5172715,-128.599548,85.91,32.0,40.0,8.05,CA,1659133624.0
talesh,37.7974981,48.904184,76.6,77.0,3.0,0.6,IR,1659133625.0
lakatoro,-16.1068174,167.418485,78.06,82.0,100.0,11.18,VU,1659133625.0
natchitoches,31.7606732,-93.0860209,91.38,55.0,40.0,3.44,US,1659133626.0
brightwater,-41.3748768,173.1065596,46.74,96.0,100.0,0.87,NZ,1659133626.0
goderich,43.7430924,-81.7110949,75.51,53.0,12.0,4.61,CA,1659133627.0
buala,-8.145546,159.5930366,82.8,66.0,85.0,6.55,SB,1659133627.0
kununurra,-15.7730916,128.738839,49.91,93.0,8.0,0.0,AU,1659133627.0
haines junction,60.7527212,-137.5100384,69.75,32.0,49.0,3.44,CA,1659133628.0
mut,36.6434508,33.4381884,79.43,36.0,0.0,0.45,TR,1659133628.0
khorramshahr,30.4333105,48.1779858,91.38,79.0,75.0,4.61,IR,1659133629.0
talnakh,69.4939889,88.3907607,60.58,75.0,3.0,4.76,RU,1659133629.0
balsas,-7.53214,-46.037163,84.42,32.0,6.0,2.35,BR,1659133630.0
guangyuan,32.4329637,105.8563402,73.76,87.0,8.0,2.48,CN,1659133630.0
vila velha,-20.3297037,-40.2920174,76.95,80.0,0.0,13.8,BR,1659133631.0
fairbanks,64.837845,-147.716675,71.02,41.0,20.0,5.75,US,1659133631.0
ecoporanga,-18.3720918,-40.8321351,74.39,37.0,19.0,3.65,BR,1659133632.0
zhangjiakou,40.8228016,114.880567,67.24,93.0,10.0,4.45,CN,1659133632.0
rawson,-43.2991348,-65.1056655,51.13,56.0,82.0,9.62,AR,1659133633.0
linxia,35.4787351,103.038525,58.98,63.0,0.0,7.92,CN,1659133633.0
tynda,55.149694,124.7375884,60.13,81.0,37.0,1.48,RU,1659133634.0
tuggurt,33.1098968,6.066102,98.67,12.0,0.0,6.91,DZ,1659133634.0
chulman,56.840408,124.904716,58.87,85.0,0.0,4.88,RU,1659133634.0
zhezkazgan,47.80434,67.714401,67.73,51.0,100.0,7.74,KZ,1659133635.0
manzanillo,41.586343,-4.189038,68.88,66.0,0.0,14.32,ES,1659133635.0
evensk,61.919209,159.235931,56.05,61.0,55.0,20.83,RU,1659133636.0
leshukonskoye,64.902481,45.767242,60.12,85.0,8.0,4.97,RU,1659133636.0
khandyga,62.6477939,135.5750942,74.66,61.0,21.0,3.11,RU,1659133637.0
auki,-8.7706074,160.6992655,82.36,66.0,38.0,3.04,SB,1659133637.0
buritizeiro,-17.3667765,-44.9647781,71.92,33.0,49.0,3.74,BR,1659133638.0
college,45.32664695,-75.83855656986515,78.51,50.0,75.0,13.8,CA,1659133638.0
saint-francois,16.2532002,-61.2750706,81.1,100.0,30.0,18.84,GP,1659133562.0
jibuti,11.5936903,43.1472724,97.88,58.0,9.0,2.91,DJ,1659133639.0
hovd,48.0006353,91.6452415,63.52,46.0,54.0,5.91,MN,1659133639.0
garden acres,32.5945803,-97.3025153,104.02,32.0,75.0,9.22,US,1659133640.0
aitape,-3.1510222,142.3594389,77.95,86.0,100.0,5.48,PG,1659133640.0
iguatemi,-23.673555,-54.563731,55.11,43.0,0.0,5.01,BR,1659133640.0
zhigansk,66.76564,123.3741,64.56,71.0,32.0,13.0,RU,1659133641.0
dingle,52.1408381,-10.2688831,60.64,96.0,100.0,9.62,IE,1659133641.0
tuatapere,-46.1323096,167.6907627,38.08,96.0,93.0,4.92,NZ,1659133642.0
santo tomas,14.1078443,121.1453304,79.03,93.0,100.0,2.68,PH,1659133642.0
gweta,-20.208965,25.255303,59.56,29.0,4.0,7.0,BW,1659133642.0
clovis,36.8252277,-119.7029194,106.16,20.0,20.0,6.91,US,1659133643.0
port-gentil,-0.7149116,8.7797434,75.18,83.0,75.0,6.91,GA,1659133643.0
paita,-5.0910296,-81.1061383,67.03,72.0,2.0,19.3,PE,1659133644.0
camden,39.9448402,-75.1198911,85.08,69.0,100.0,5.75,US,1659133645.0
itarema,-2.9224684,-39.9152184,79.18,77.0,19.0,15.97,BR,1659133645.0
aruja,-23.396266,-46.3175449,58.87,88.0,75.0,3.44,BR,1659133646.0
itapirapua,-15.8204999,-50.6094341,77.29,24.0,45.0,2.64,BR,1659133646.0
atasu,40.813793,39.669979,64.78,87.0,0.0,3.8,TR,1659133647.0
naze,5.4519997,7.0566745,72.12,96.0,75.0,3.94,NG,1659133647.0
bambous virieux,-20.347199500000002,57.76474767388835,68.56,88.0,40.0,17.27,MU,1659133648.0
klaksvik,62.2266084,-6.5852705,54.64,94.0,100.0,31.07,FO,1659133648.0
tuktoyaktuk,69.4465095,-133.0340333538775,39.2,87.0,100.0,12.66,CA,1659133648.0
kleck,53.0661204,26.632966,56.07,83.0,97.0,5.86,BY,1659133649.0
kalaleh,10.2880733,3.3792735,70.16,95.0,75.0,3.51,BJ,1659133649.0
asadabad,33.9619117,48.0036448,72.9,48.0,19.0,2.93,IR,1659133650.0
alofi,-19.0534159,-169.919199,82.9,74.0,32.0,11.5,NU,1659133650.0
solwezi,-12.1820553,26.3990713,56.55,48.0,9.0,2.73,ZM,1659133651.0
moba,-7.0427487,29.7737268,74.41,59.0,95.0,3.09,CD,1659133651.0
broome,-17.9566909,122.2240181,51.69,93.0,4.0,0.0,AU,1659133652.0
lexington,38.0464066,-84.4970393,82.98,66.0,75.0,11.5,US,1659133509.0
san cristobal,7.7756663,-72.2214154,78.67,66.0,31.0,4.63,VE,1659133652.0
hami,42.817404,93.5142008,84.16,21.0,84.0,18.57,CN,1659133653.0
barahona,18.2101889,-71.1012325,87.62,70.0,40.0,13.8,DO,1659133653.0
umzimvubu,-30.82491,28.92177617804983,52.27,65.0,10.0,3.53,ZA,1659133654.0
lasa,43.1571441,-1.2601799,68.29,98.0,17.0,0.81,FR,1659133654.0
port blair,11.6645348,92.7390448,80.02,89.0,40.0,4.61,IN,1659133654.0
lavrentiya,65.5837793,-171.0058116,47.48,76.0,86.0,9.62,RU,1659133655.0
tabou,4.4194457,-7.3603666,74.66,71.0,26.0,8.66,CI,1659133655.0
sovetskiy,61.362099,63.57354,61.29,62.0,94.0,1.1,RU,1659133656.0
peace river,56.2337111,-117.2910839,76.24,60.0,75.0,14.97,CA,1659133656.0
harrison,40.7464901,-74.1562551,85.93,55.0,100.0,11.5,US,1659133546.0
zhangye,38.9365134,100.4556326,72.27,35.0,38.0,6.87,CN,1659133657.0
sampit,-2.5389113,112.949389,73.45,99.0,100.0,1.74,ID,1659133657.0
nizhneyansk,71.440445,136.130646,45.72,77.0,100.0,2.73,RU,1659133658.0
sakakah,29.9784008,40.2047701,94.57,12.0,20.0,6.46,SA,1659133658.0
surgut,61.254032,73.3964,66.38,82.0,0.0,7.0,RU,1659133659.0
nizwa,22.9323884,57.5311,79.41,72.0,97.0,4.43,OM,1659133659.0
bathsheba,13.2129361,-59.5227245,81.0,95.0,75.0,12.66,BB,1659133660.0
kloulklubed,7.0415131,134.2564595,75.52,74.0,100.0,13.58,PW,1659133660.0
kargasok,59.0598053,80.8708719,60.55,69.0,92.0,8.61,RU,1659133660.0
kulhudhuffushi,6.6229329,73.0709428,80.55,82.0,100.0,15.05,MV,1659133661.0
lagoa,37.13258125,-8.45505094811731,76.68,63.0,0.0,9.55,PT,1659133661.0
orange,44.1371311,4.8078783,78.22,55.0,0.0,13.8,FR,1659133662.0
borogontsy,62.670792,131.166061,75.6,56.0,55.0,2.08,RU,1659133662.0
ushtobe,45.2513771,77.9838119,75.06,49.0,97.0,12.3,KZ,1659133662.0
vardo,70.3308174,30.961751972265887,48.88,81.0,100.0,8.05,NO,1659133663.0
grindavik,63.844239,-22.4317498,49.82,76.0,75.0,16.11,IS,1659133663.0
harper,41.3624875,-92.0510088,82.53,52.0,87.0,10.98,US,1659133664.0
hokitika,-42.7178871,170.9646469,45.75,79.0,98.0,6.15,NZ,1659133664.0
punta alta,-38.8804693,-62.0744033,53.58,57.0,0.0,5.28,AR,1659133665.0
khuldabad,20.005729,75.19202638482875,75.38,82.0,95.0,3.91,IN,1659133665.0
saint george,12.0535331,-61.751805,81.48,78.0,20.0,13.8,GD,1659133665.0
gao,16.2788129,-0.0412392,86.23,49.0,67.0,6.76,ML,1659133666.0
manzhouli,49.47671775,117.79463368396365,63.46,91.0,98.0,5.44,CN,1659133666.0
goksun,38.0214898,36.494634,67.37,65.0,0.0,4.03,TR,1659133667.0
leh,34.1642029,77.5848133,62.44,62.0,66.0,5.77,IN,1659133667.0
sandwick,58.205513,-6.3533217,58.82,98.0,100.0,17.27,GB,1659133668.0
acapulco,16.8680495,-99.8940182,85.48,74.0,75.0,8.05,MX,1659133668.0
vangaindrano,-23.3503159,47.6043136,64.26,92.0,24.0,0.74,MG,1659133669.0
san antonio,29.4246002,-98.4951405,103.05,33.0,0.0,14.97,US,1659133427.0
lensk,60.7145488,114.9172123,61.09,96.0,22.0,3.8,RU,1659133669.0
verkhnyaya khava,51.8439568,39.9334627,58.98,72.0,55.0,6.64,RU,1659133670.0
paamiut,61.994618,-49.6659478,46.09,81.0,95.0,4.27,GL,1659133670.0
coos bay,43.3678937,-124.2174647,84.31,84.0,20.0,18.41,US,1659133670.0
yuxia,34.026904,105.069377,65.82,93.0,48.0,3.38,CN,1659133671.0
broken hill,-31.965,141.4511111,43.16,72.0,73.0,10.04,AU,1659133671.0
villanueva,6.6712394,-73.1753984,71.38,82.0,80.0,4.47,CO,1659133672.0
champerico,14.293651,-91.911813,86.56,77.0,49.0,9.24,GT,1659133672.0
teahupoo,-17.840272,-149.22237039798483,74.01,75.0,13.0,23.8,PF,1659133673.0
clyde river,46.2238705,-63.2571596,73.45,91.0,75.0,13.8,CA,1659133673.0
coro,11.4055796,-69.6679115,83.84,68.0,96.0,19.77,VE,1659133674.0
necochea,-38.5545494,-58.7392624,48.36,69.0,0.0,8.16,AR,1659133674.0
buchanan,41.2620383,-73.9381943,85.33,62.0,94.0,8.14,US,1659133674.0
dong hoi,17.4659566,106.5984715,80.78,77.0,100.0,3.58,VN,1659133675.0
komsomolskiy,43.98266,46.6950001,73.22,60.0,0.0,3.38,RU,1659133675.0
santa maria,-29.6860512,-53.8069214,51.04,82.0,0.0,2.3,BR,1659133676.0
capoeiras,-8.7386788,-36.6268109,64.02,97.0,100.0,5.77,BR,1659133676.0
barcelona,41.3828939,2.1774322,78.22,83.0,20.0,4.61,ES,1659133676.0
saint-gaudens,43.1077682,0.7247218,63.86,76.0,62.0,4.72,FR,1659133677.0
olafsvik,64.8959304,-23.7084345,49.73,68.0,18.0,12.97,IS,1659133677.0
bollnas,61.35,16.433333,56.41,60.0,100.0,3.18,SE,1659133678.0
daule,-1.8641689,-79.9804093,78.82,53.0,87.0,1.41,EC,1659133678.0
erzincan,39.7467552,39.49103,61.88,51.0,0.0,4.61,TR,1659133679.0
lazaro cardenas,15.1736223,-92.552146,87.8,84.0,100.0,5.23,MX,1659133679.0
monrovia,6.328034,-10.797788,75.31,72.0,100.0,6.13,LR,1659133679.0
nyzhni sirohozy,46.8457,34.37725,72.86,42.0,14.0,14.16,UA,1659133680.0
tramore,52.1835974,-7.1496198989537,63.03,81.0,98.0,14.0,IE,1659133680.0
solnechnyy,50.723808,136.64006,72.36,90.0,94.0,7.85,RU,1659133681.0
toila,59.42096485,27.51543959072337,59.99,72.0,37.0,12.44,EE,1659133681.0
pathein,16.762091650000002,94.66509973096325,79.57,88.0,98.0,4.83,MM,1659133682.0
abiy adi,14.4389373,39.0761688,63.91,86.0,97.0,1.74,ET,1659133682.0
fort frances,48.6114425,-93.3967615,77.14,51.0,20.0,11.5,CA,1659133683.0
teguldet,57.306404,88.167168,60.75,87.0,92.0,4.81,RU,1659133683.0
srednekolymsk,67.455497,153.7071456,65.75,34.0,97.0,13.02,RU,1659133684.0
radstadt,47.3846705,13.4627822,65.25,100.0,100.0,4.14,AT,1659133684.0
half moon bay,37.4635519,-122.428586,81.36,72.0,100.0,18.41,US,1659133322.0
mackay,-21.141956,149.1865149,61.65,70.0,0.0,12.5,AU,1659133685.0
marcona,-15.2155331,-75.08303444567473,58.28,69.0,27.0,11.1,PE,1659133685.0
richards bay,-28.7707857,32.0577775,67.77,63.0,2.0,15.14,ZA,1659133686.0
shingu,33.7241003,135.9930029,79.18,85.0,100.0,3.96,JP,1659133686.0
svetlaya,52.4482319,39.9390827,60.31,73.0,22.0,6.58,RU,1659133686.0
bundaberg,-24.8653253,152.3516785,58.1,74.0,80.0,3.0,AU,1659133687.0
naryan-mar,67.6380175,53.0071044,46.08,90.0,16.0,8.75,RU,1659133687.0
sao felix do xingu,-6.6386974,-51.9787582,80.91,37.0,6.0,2.08,BR,1659133688.0
mitu,36.1986,46.0868,71.6,48.0,0.0,4.38,IR,1659133688.0
domoni,-12.2586544,44.528851,73.72,79.0,1.0,3.27,KM,1659133689.0
qandahar,31.6205738,65.7157573,88.95,40.0,43.0,9.73,AF,1659133689.0
matay,6.7729896,-9.64194,68.5,87.0,100.0,3.0,LR,1659133690.0
kifri,34.6865956,44.9603501,94.41,9.0,0.0,7.05,IQ,1659133690.0
berdigestyakh,62.098289,126.699837,69.89,78.0,100.0,4.41,RU,1659133691.0
agirish,61.9281842,63.0086918,60.94,61.0,93.0,0.83,RU,1659133691.0
santa rosa,38.4404925,-122.7141049,91.18,48.0,0.0,12.66,US,1659133607.0
vuktyl,63.844337,57.300171,61.75,64.0,49.0,1.81,RU,1659133692.0
verkhnevilyuysk,63.4497609,120.3146678,70.45,77.0,98.0,3.4,RU,1659133692.0
kimbe,-5.5562921,150.1529513,79.03,84.0,80.0,2.24,PG,1659133693.0
anastasiyevskaya,45.215729,37.894539,75.67,53.0,17.0,6.87,RU,1659133693.0
nouadhibou,20.9127045,-17.0503094,71.47,85.0,43.0,13.8,MR,1659133694.0
cabedelo,-6.97324,-34.8351609,77.68,88.0,98.0,12.55,BR,1659133694.0
sar-e pul,36.2149655,65.933303,84.56,21.0,100.0,6.44,AF,1659133694.0
san patricio,27.9695325,-97.7731720386266,99.05,37.0,61.0,19.28,US,1659133695.0
mwinilunga,-11.7314645,24.4260264,56.61,44.0,53.0,2.46,ZM,1659133695.0
carbondale,37.7274692,-89.216655,82.4,55.0,40.0,8.05,US,1659133696.0
mandvi,21.254926,73.3046407,77.79,92.0,100.0,5.86,IN,1659133696.0
aklavik,68.2182579,-135.013585,46.4,93.0,100.0,5.75,CA,1659133697.0
safford,32.8339546,-109.70758,89.11,35.0,22.0,4.81,US,1659133697.0
dosso,13.0496369,3.1944647,80.83,67.0,8.0,6.98,NE,1659133698.0
sola,58.882082249999996,5.356254245388384,54.41,89.0,0.0,3.44,NO,1659133698.0
muli,2.9221163,73.5814986,81.59,76.0,100.0,15.61,MV,1659133699.0
ballina,-28.86574,153.5659468,51.78,77.0,33.0,11.52,AU,1659133699.0
okahandja,-21.979231,16.9128172,53.87,26.0,37.0,4.94,NA,1659133700.0
taltal,-25.4078293,-70.4858424,59.54,78.0,37.0,6.11,CL,1659133700.0
juneau,58.3019496,-134.419734,62.6,99.0,100.0,9.22,US,1659133504.0
morondava,-20.2951102,44.2786121,72.09,68.0,85.0,3.78,MG,1659133701.0
thinadhoo,0.5326429,72.99714160821568,79.3,82.0,100.0,20.51,MV,1659133702.0
vanimo,-2.6847646,141.3009131,77.54,89.0,98.0,6.08,PG,1659133702.0
salinas,36.6744117,-121.6550372,86.0,63.0,0.0,14.97,US,1659133703.0
voh,-20.9499628,164.6871864,70.88,83.0,100.0,5.32,NC,1659133703.0
katangli,51.7102267,143.2326072,61.72,96.0,100.0,5.57,RU,1659133638.0
xuddur,4.1237042,43.8915563,70.84,75.0,53.0,19.01,SO,1659133704.0
nosy varika,-20.5829067,48.5322582,66.25,91.0,84.0,3.29,MG,1659133704.0
margate,51.3878174,1.3819699,64.42,85.0,8.0,1.99,GB,1659133704.0
kieta,-0.2201641,-78.5123274,65.03,52.0,40.0,14.97,EC,1659133705.0
esperance,-33.858228,121.8931606,50.23,73.0,19.0,22.06,AU,1659133705.0
finschhafen,-6.6040926,147.8536907,81.57,71.0,97.0,6.58,PG,1659133706.0
erenhot,43.6407813,111.943519,76.68,34.0,99.0,18.19,CN,1659133706.0
hegang,47.328863,130.2816917,72.72,84.0,33.0,6.53,CN,1659133707.0
esil,51.9601511,66.4088826,62.71,96.0,100.0,16.02,KZ,1659133707.0
dunedin,-45.8740984,170.5035755,42.8,74.0,89.0,3.67,NZ,1659133708.0
dajal,29.5563174,70.3797208,88.63,67.0,90.0,10.4,PK,1659133708.0
pangai,-19.8054603,-174.3489373,80.65,83.0,40.0,18.41,TO,1659133709.0
faya,13.6777637,-6.1585269,75.7,73.0,100.0,7.43,ML,1659133709.0
san rafael,37.9735346,-122.5310874,87.17,73.0,0.0,8.05,US,1659133581.0
sisophon,13.5884004,102.9700274,76.46,90.0,88.0,6.26,KH,1659133710.0
miri,43.4599858,1.3262332,71.37,94.0,0.0,8.05,FR,1659133710.0
avallon,47.4885365,3.9070658,65.59,52.0,81.0,3.67,FR,1659133711.0
kishanganj,26.1014194,87.9507791,82.4,81.0,90.0,1.9,IN,1659133711.0
ritchie,37.9597727,-87.0388856,82.94,63.0,0.0,5.75,US,1659133712.0
glace bay,46.1949393,-59.9561999,66.18,94.0,100.0,12.66,CA,1659133712.0
barabai,-2.58553,115.3845228,72.5,98.0,76.0,1.03,ID,1659133712.0
hinton,42.6267251,-96.294369,83.82,39.0,0.0,4.61,US,1659133713.0
tooele,40.5307776,-112.29828,96.35,24.0,0.0,5.75,US,1659133713.0
linqiong,30.4145205,103.4654411,82.24,89.0,85.0,2.71,CN,1659133714.0
daru,-9.069901,143.210029,77.04,92.0,99.0,15.1,PG,1659133714.0
lata,-10.7241726,165.7977641,82.27,75.0,98.0,10.33,SB,1659133715.0
chukhloma,58.7560222,42.68065,54.79,94.0,20.0,2.19,RU,1659133715.0
illela,14.4590368,5.2455312,87.87,46.0,0.0,5.59,NE,1659133715.0
kathu,7.9093905,98.3336498,85.64,86.0,79.0,13.94,TH,1659133716.0
seydisehir,37.4200274,31.8449751,68.45,37.0,0.0,2.8,TR,1659133716.0
kostinbrod,42.8131989,23.2156511,73.54,54.0,29.0,1.59,BG,1659133717.0
sept-iles,50.2109579,-66.3790642,59.43,98.0,100.0,4.61,CA,1659133717.0
alta floresta,-9.8715018,-56.0839881,80.11,30.0,26.0,3.58,BR,1659133718.0
manado,1.4900578,124.8408708,74.25,100.0,20.0,2.3,ID,1659133718.0
vinces,-1.5584095,-79.7509236,83.73,61.0,95.0,1.59,EC,1659133718.0
ayame,35.134833,135.999997,84.67,85.0,77.0,1.99,JP,1659133719.0
zaozerne,51.372025,23.941853,62.98,76.0,76.0,9.17,UA,1659133719.0
northam,51.0505743,-4.211341809956307,61.05,91.0,97.0,4.45,GB,1659133720.0
altay,47.8257562,88.1291701,66.42,45.0,85.0,3.74,CN,1659133720.0
wewak,-3.5542197,143.6270904,78.28,88.0,100.0,6.91,PG,1659133720.0
mandan,46.826415,-100.889704,90.37,28.0,0.0,9.22,US,1659133721.0
sobolevo,55.5204405,38.7062515,62.55,92.0,3.0,4.92,RU,1659133721.0
paciran,-6.8765741,112.392446,74.79,90.0,71.0,7.49,ID,1659133722.0
embonas,36.2268445,27.8561846,73.9,83.0,1.0,11.03,GR,1659133722.0
sataua,-13.5175919,-172.6929859,81.81,76.0,15.0,21.92,WS,1659133722.0
turukhansk,65.7934285,87.9589375,60.12,70.0,100.0,9.24,RU,1659133723.0
soc trang,9.5664427,105.876444,78.12,91.0,79.0,5.21,VN,1659133723.0
high level,58.516667,-117.133333,68.13,68.0,100.0,8.05,CA,1659133724.0
hobyo,5.349526,48.526366,75.61,85.0,99.0,26.73,SO,1659133724.0
pukhrayan,26.2269466,79.8397679,82.4,80.0,98.0,2.55,IN,1659133725.0
changli,39.7039133,119.1614947,72.91,91.0,2.0,4.81,CN,1659133725.0
kuusamo,65.9645637,29.1883283,51.87,87.0,100.0,3.44,FI,1659133726.0
yurga,55.7136,84.934799,59.09,95.0,1.0,5.88,RU,1659133726.0
melekhovskaya,61.4683284,42.4866483,61.07,98.0,100.0,5.7,RU,1659133727.0
goteborg,57.7072326,11.9670171,62.46,83.0,0.0,3.44,SE,1659133727.0
cap malheureux,-19.9859951,57.619612,68.47,76.0,84.0,5.99,MU,1659133727.0
manicore,-5.804618,-61.289483,86.0,58.0,0.0,1.14,BR,1659133728.0
balkanabat,39.5116273,54.3539921,85.14,41.0,35.0,7.52,TM,1659133728.0
kamenka,53.1850012,44.0529066,63.28,93.0,9.0,6.06,RU,1659133729.0
adrar,27.8733807,-0.2874884,95.22,7.0,0.0,12.66,DZ,1659133729.0
shimoda,34.679545,138.945379,81.72,80.0,9.0,6.11,JP,1659133730.0
ulladulla,-35.3621503,150.4751713,43.59,68.0,6.0,4.72,AU,1659133730.0
kalat,37.2191667,57.41,63.5,87.0,37.0,7.47,IR,1659133730.0
fortuna,40.597407,-124.156034,68.94,79.0,75.0,13.8,US,1659132914.0
hastings,50.8553888,0.5824703,64.98,90.0,10.0,6.46,GB,1659133731.0
bud,37.5376145,-81.3792689,80.62,77.0,40.0,8.1,US,1659133732.0
cumaribo,4.4471495,-69.7975845,78.19,87.0,62.0,4.99,CO,1659133732.0
lodingen,68.3944357,15.609655745604854,45.95,78.0,63.0,3.8,NO,1659133732.0
kingman,35.189443,-114.0530065,91.26,44.0,0.0,13.0,US,1659133479.0
sile,41.1744067,29.6125216,74.57,75.0,0.0,1.99,TR,1659133733.0
nuoro,40.3210601,9.3297339,71.65,49.0,0.0,3.22,IT,1659133734.0
myrtle beach,33.6956461,-78.8900409,93.24,76.0,0.0,14.97,US,1659133734.0
atar,20.5181943,-13.0543928,95.29,32.0,4.0,13.94,MR,1659133735.0
acatlan,19.697222,-96.841944,65.08,84.0,75.0,4.18,MX,1659133735.0
westport,41.1414855,-73.3578955,85.28,67.0,20.0,11.5,US,1659133736.0
mukhen,48.194725,136.137177,77.13,79.0,8.0,9.46,RU,1659133736.0
boa vista,2.8208478,-60.6719582,75.18,83.0,100.0,3.44,BR,1659133737.0
benjamin constant,-4.3782748,-70.0290603,82.45,74.0,40.0,5.75,BR,1659133737.0
suamico,44.632044,-88.039342,77.49,54.0,100.0,9.22,US,1659133738.0
newton abbot,50.53791245,-3.636349949695232,64.09,81.0,69.0,5.39,GB,1659133738.0
waitara,-39.0028236,174.2364324,58.41,88.0,61.0,16.93,NZ,1659133739.0
khatanga,71.9819205,102.4714765,63.46,64.0,49.0,11.21,RU,1659133739.0
ewa beach,21.315603,-158.008804,87.73,49.0,0.0,16.11,US,1659133150.0
el alto,44.1089458,8.003074,69.67,80.0,11.0,4.47,IT,1659133740.0
longkou,37.6443474,120.4708629,76.87,88.0,100.0,4.72,CN,1659133740.0
brasilia,-15.7934036,-47.8823172,74.8,23.0,0.0,2.3,BR,1659133741.0
halifax,44.648618,-63.5859487,69.17,96.0,98.0,15.01,CA,1659133741.0
luganville,-15.5121107,167.1784414,78.37,81.0,100.0,4.74,VU,1659133742.0
huarmey,-10.0687481,-78.152199,66.04,74.0,5.0,9.6,PE,1659133742.0
kinel,53.219738,50.633228,67.19,70.0,66.0,4.32,RU,1659133743.0
ambilobe,-13.194439,49.049956,66.54,80.0,9.0,3.62,MG,1659133743.0
ust-kuyga,70.00177,135.549835,57.67,65.0,49.0,5.26,RU,1659133744.0
pingxiang,22.0972997,106.7633247,76.01,84.0,95.0,2.13,CN,1659133744.0
amahai,-3.3081717,129.0010636,72.72,92.0,99.0,1.9,ID,1659133745.0
bac lieu,9.2824882,105.7260685,80.8,84.0,28.0,8.81,VN,1659133745.0
atbasar,51.8099624,68.3584729,62.51,95.0,100.0,7.99,KZ,1659133745.0
amga,60.894218,131.97998,70.07,69.0,100.0,2.17,RU,1659133746.0
businga,-1.2665667,29.6820633,60.01,81.0,100.0,0.67,UG,1659133746.0
erzin,36.9433741,36.16748477873442,76.15,58.0,0.0,1.88,TR,1659133747.0
san andres,4.90199215,-75.70131910681533,77.76,73.0,40.0,4.61,CO,1659133747.0
truro,50.2627515,-5.0520467,63.75,91.0,87.0,5.99,GB,1659133748.0
hamilton,43.2560802,-79.8728583,84.02,39.0,40.0,9.22,CA,1659133748.0
ternate,45.7822863,8.6903182,67.42,88.0,0.0,2.3,IT,1659133749.0
el faiyum,29.3074076,30.8399651,83.34,34.0,1.0,12.1,EG,1659133749.0
gagino,54.2717236,39.5363883,61.05,71.0,56.0,7.72,RU,1659133750.0
iralaya,15.0027763,-83.2258873,82.49,73.0,2.0,9.84,HN,1659133750.0
artyk,37.5516012,59.3272718,84.25,56.0,14.0,8.77,TM,1659133751.0
quatis,-22.4066444,-44.2577453,64.29,93.0,97.0,4.56,BR,1659133751.0
den helder,52.9529894,4.8267592494488,63.0,86.0,75.0,5.99,NL,1659133751.0
martapura,-3.4054664,114.8478146,77.14,94.0,100.0,3.44,ID,1659133752.0
kupang,-10.1632209,123.6017755,71.56,86.0,72.0,9.31,ID,1659133752.0
husavik,66.0433168,-17.3410402,42.55,86.0,100.0,8.48,IS,1659133753.0
utiroa,-1.2130376,174.7571277,80.49,70.0,17.0,17.63,KI,1659133753.0
burnie,-41.0523688,145.9064073,43.7,75.0,73.0,1.74,AU,1659133754.0
luhyny,51.07853,28.3976,62.24,80.0,87.0,5.88,UA,1659133754.0
louisbourg,45.9234791,-59.9642959,66.11,98.0,100.0,8.01,CA,1659133755.0
yumen,40.2916528,97.0448526,75.74,25.0,100.0,7.31,CN,1659133755.0
kropotkin,45.4344413,40.5750274,77.97,42.0,33.0,3.27,RU,1659133756.0
tefe,-3.3485276,-64.7102278,91.62,62.0,20.0,2.3,BR,1659133756.0
guanhaes,-18.7753627,-42.9340634,65.34,40.0,16.0,3.13,BR,1659133756.0
sompeta,18.9424871,84.5839641,81.46,83.0,82.0,8.3,IN,1659133757.0
velen,50.1732149,14.5542067,69.76,70.0,75.0,7.0,CZ,1659133757.0
port hedland,-20.3111814,118.5801181,53.64,94.0,2.0,5.75,AU,1659133758.0
svetlogorsk,54.9417552,20.1550863,59.52,67.0,70.0,9.8,RU,1659133758.0
dudinka,69.406067,86.175072,61.66,78.0,17.0,5.93,RU,1659133759.0
kolondieba,11.0885197,-6.8934164,73.33,89.0,100.0,4.47,ML,1659133759.0
labuan,5.2769876,115.2433556,80.96,89.0,40.0,1.14,MY,1659133760.0
rahimatpur,17.5912974,74.1980203,76.93,81.0,94.0,3.44,IN,1659133761.0
