city,lat,lng,humidity,cloudiness,wind speed,max temperature,country,date
barrow,71.2905556,-156.788611,93.0,100.0,14.97,35.62,US,1659065960.0
erenhot,43.6407813,111.943519,17.0,99.0,16.73,90.93,CN,1659065961.0
tual,-5.6443094,132.7416819,87.0,79.0,21.72,78.33,ID,1659065961.0
albany,42.6511674,-73.754968,90.0,6.0,2.3,74.61,US,1659065962.0
jiddah,21.5810088,39.1653612,62.0,77.0,5.75,87.71,SA,1659065962.0
kang,-23.6723961,22.7908749,39.0,75.0,9.48,54.59,BW,1659065963.0
mataura,-46.192734,168.8642685,95.0,92.0,8.63,47.48,NZ,1659065963.0
leningradskiy,54.129108,79.236702,48.0,17.0,13.38,76.71,RU,1659065964.0
talnakh,69.4939889,88.3907607,45.0,0.0,10.33,64.58,RU,1659065964.0
bluff,-46.6014038,168.3398682,76.0,99.0,18.21,47.93,NZ,1659065964.0
nanortalik,60.1400246,-45.2428523,86.0,90.0,2.8,43.83,GL,1659065965.0
alofi,-19.0534159,-169.919199,78.0,75.0,16.11,79.3,NU,1659065965.0
hermanus,-34.4175,19.2361111,76.0,69.0,20.51,56.01,ZA,1659065966.0
comodoro rivadavia,-45.8632024,-67.4752615,46.0,100.0,40.29,52.25,AR,1659065966.0
jutai,-2.7471478,-66.7721255,85.0,51.0,2.44,75.61,BR,1659065967.0
rikitea,-23.1229544,-134.9680141,75.0,11.0,21.81,73.18,PF,1659065967.0
mahebourg,-20.4111041,57.7060616,64.0,40.0,8.05,70.18,MU,1659065968.0
belmonte,39.5592831,-2.7038117,81.0,0.0,5.37,69.55,ES,1659065968.0
padang,-0.9247587,100.3632561,100.0,75.0,8.05,71.64,ID,1659065968.0
cabo san lucas,22.8938884,-109.9200604,61.0,11.0,5.01,88.7,MX,1659065969.0
avarua,-21.2074736,-159.7708145,78.0,40.0,19.57,76.98,CK,1659065969.0
vakhrushevo,55.2286063,61.7257947,100.0,75.0,8.95,60.39,RU,1659065970.0
inta,66.039749,60.13158,47.0,20.0,16.04,72.09,RU,1659065970.0
tizimin,21.1428919,-88.1524717,87.0,54.0,7.58,77.88,MX,1659065971.0
kahului,20.8894101,-156.4727118,64.0,40.0,17.27,84.18,US,1659065971.0
port elizabeth,-33.9617051,25.6207519,77.0,0.0,6.91,59.14,ZA,1659065972.0
busselton,-33.644499,115.3488754,69.0,85.0,25.88,60.01,AU,1659065972.0
avera,43.3896226,-0.1768284,94.0,100.0,0.0,63.18,FR,1659065972.0
solovetskiy,65.0221405,35.7103677,91.0,100.0,25.14,51.69,RU,1659065973.0
ushuaia,-54.806115899999995,-68.3184972880496,81.0,100.0,12.66,40.69,AR,1659065974.0
cape town,-33.928992,18.417396,83.0,40.0,24.16,57.67,ZA,1659065974.0
jamestown,37.2104434,-76.7738928,86.0,0.0,6.91,84.29,US,1659065974.0
lethem,3.3749987,-59.7958674,89.0,100.0,1.28,75.72,GY,1659065975.0
tsabong,-26.021746,22.401006,26.0,73.0,16.37,61.61,BW,1659065976.0
dingle,52.1408381,-10.2688831,91.0,100.0,7.0,60.33,IE,1659065976.0
atuona,-9.77932315,-139.06194910808324,76.0,26.0,23.6,67.57,PF,1659065977.0
hithadhoo,1.7959425,73.38755195657038,73.0,97.0,11.7,82.38,MV,1659065977.0
erzin,36.9433741,36.16748477873442,57.0,0.0,0.38,79.86,TR,1659065977.0
pilar,-34.4570918,-58.9141609,79.0,0.0,1.99,49.77,AR,1659065978.0
tasiilaq,65.6152573,-37.6378149,95.0,100.0,2.62,41.5,GL,1659065978.0
puerto ayora,-0.7471674,-90.3134198,95.0,68.0,5.01,70.2,EC,1659065979.0
hasaki,35.7529706,140.8201321,74.0,2.0,17.31,95.29,JP,1659065979.0
vaini,-21.1925671,-175.1772797,83.0,20.0,11.5,80.89,TO,1659065980.0
punta arenas,-53.1625688,-70.907822,87.0,20.0,26.46,39.49,CL,1659065980.0
karratha,-20.7370067,116.8478592,22.0,21.0,14.74,78.71,AU,1659065981.0
cayenne,4.9371143,-52.3258307,1.0,0.0,0.0,77.07,GF,1659065981.0
tigre,-34.4226513,-58.5808967,73.0,0.0,11.5,48.18,AR,1659065982.0
samarai,-10.6106054,150.6619362,85.0,73.0,14.12,79.16,PG,1659065982.0
east london,-33.0191604,27.8998573,59.0,0.0,8.05,65.55,ZA,1659065983.0
bubaque,11.29969595,-15.833543367212418,84.0,13.0,17.05,78.71,GW,1659065983.0
butaritari,2.9205375,172.91886331442205,74.0,73.0,13.58,82.18,KI,1659065983.0
roald,62.5838286,6.1241844,100.0,100.0,4.61,54.75,NO,1659065984.0
kapaa,22.0747334,-159.3191601,73.0,100.0,9.22,82.38,US,1659065984.0
kodiak,57.79,-152.4072222,59.0,0.0,4.61,62.11,US,1659065985.0
fallon,47.5075937,6.4807726,82.0,100.0,0.56,56.43,FR,1659065985.0
tuktoyaktuk,69.4465095,-133.0340333538775,81.0,100.0,16.11,44.6,CA,1659065986.0
wenling,28.3761941,121.3808408,69.0,35.0,10.22,88.03,CN,1659065986.0
chicama,-7.843424,-79.1451857,84.0,28.0,5.35,59.49,PE,1659065987.0
hobart,-42.8825088,147.3281233,65.0,40.0,10.36,49.8,AU,1659065987.0
tuy hoa,46.6520483,126.9607485,92.0,99.0,12.68,74.82,CN,1659065988.0
barentsburg,78.065362,14.2172367,87.0,100.0,5.35,42.4,SJ,1659065988.0
bilma,18.69293,12.91872,49.0,66.0,7.29,83.3,NE,1659065988.0
clyde river,46.2238705,-63.2571596,84.0,75.0,5.75,67.44,CA,1659065989.0
yulara,-25.2410108,130.9869405,15.0,93.0,11.07,68.43,AU,1659065989.0
camocim,-2.9009918,-40.8427389,81.0,88.0,8.9,76.23,BR,1659065990.0
mar del plata,-37.9977225,-57.5482703,85.0,100.0,10.36,46.81,AR,1659065990.0
port alfred,-33.5981844,26.8914772,68.0,0.0,4.0,62.06,ZA,1659065991.0
tsihombe,-25.318547,45.484057,76.0,22.0,12.5,66.33,MG,1659065991.0
privokzalnyy,64.0401116,44.3671754,93.0,96.0,5.91,67.14,RU,1659065992.0
banjar,-7.3695648,108.5415225,68.0,99.0,2.17,84.27,ID,1659065992.0
shkotovo-22,43.3209601,132.360091,78.0,75.0,11.18,77.02,RU,1659065993.0
jieshou,33.2619055,115.3540362,66.0,18.0,5.61,86.11,CN,1659065993.0
omaha,41.2587459,-95.9383758,62.0,40.0,3.44,71.33,US,1659065591.0
dikson,73.5083894,80.5123816,99.0,100.0,15.86,42.53,RU,1659065994.0
alyangula,-13.8489517,136.4199111,53.0,39.0,14.29,77.52,AU,1659065994.0
teshie,5.5822343,-0.1135104,83.0,20.0,11.5,75.69,GH,1659065995.0
isfana,39.8384418,69.5253831,30.0,30.0,5.37,75.83,KG,1659065995.0
usinsk,65.995731,57.5571267,54.0,76.0,14.72,70.86,RU,1659065996.0
borlange,60.4856426,15.4234561,93.0,36.0,3.44,42.91,SE,1659065996.0
kaitangata,-46.2817388,169.8464139,74.0,97.0,7.11,47.48,NZ,1659065996.0
inhambane,-23.865961,35.384363,85.0,6.0,5.79,59.63,MZ,1659065997.0
teya,41.4970697,2.3214331,85.0,0.0,1.14,76.86,ES,1659065997.0
palafrugell,41.9183618,3.1619905,72.0,3.0,2.37,76.71,ES,1659065998.0
san isidro,38.1707587,-0.8387399,81.0,0.0,0.58,80.19,ES,1659065998.0
bredasdorp,-34.533055,20.042778,61.0,42.0,12.24,56.5,ZA,1659065999.0
illoqqortoormiut,70.4850588,-21.9641992,99.0,100.0,8.34,36.97,GL,1659065999.0
varhaug,58.6165462,5.6448502,82.0,7.0,3.89,53.89,NO,1659066000.0
bacolod,10.6762836,122.9513786,77.0,99.0,14.85,84.88,PH,1659066000.0
zarand,30.8134822,56.5672432,54.0,95.0,1.03,79.2,IR,1659066001.0
nizhneyansk,71.440445,136.130646,85.0,100.0,14.03,47.95,RU,1659066001.0
pemangkat,1.156069,108.97129192715386,73.0,52.0,1.34,82.04,ID,1659066002.0
paramonga,-10.6751894,-77.8185202,82.0,69.0,8.03,61.03,PE,1659066002.0
marzuq,14.392507,46.470115,56.0,45.0,9.15,78.46,YE,1659066003.0
new norfolk,-42.7801998,147.0615332,72.0,77.0,1.99,49.73,AU,1659066004.0
culpeper,38.4733823,-77.9961275,92.0,0.0,0.0,77.38,US,1659066005.0
new baltimore,42.4461934,-73.7884568,98.0,8.0,1.52,75.47,US,1659066005.0
qaanaaq,77.4686357,-69.2222746,84.0,70.0,4.65,34.93,GL,1659066006.0
shimoda,34.679545,138.945379,72.0,3.0,9.78,88.97,JP,1659066006.0
castro,45.802987,10.06706,89.0,56.0,6.15,72.36,IT,1659066007.0
portland,45.5202471,-122.6741949,57.0,0.0,8.05,91.99,US,1659066008.0
amderma,69.7522076,61.662267280204404,91.0,100.0,13.33,56.39,RU,1659066008.0
ridgetown,42.4394208,-81.8821334,62.0,96.0,10.09,65.98,CA,1659066009.0
sao joao da barra,-21.6348588,-41.0487079,83.0,11.0,13.11,68.97,BR,1659066009.0
kruisfontein,-34.0119558,24.7433295,43.0,0.0,9.95,55.35,ZA,1659066010.0
muzhi,65.400004,64.7018584,47.0,94.0,10.09,71.98,RU,1659066011.0
ilulissat,69.2197127,-51.0986385,46.0,96.0,16.11,50.29,GL,1659066011.0
pisco,-13.7099813,-76.2029793,82.0,100.0,2.3,60.69,PE,1659066012.0
tarabha,18.99321,94.200279,62.0,31.0,3.56,90.73,MM,1659066012.0
vuktyl,63.844337,57.300171,51.0,55.0,5.86,69.37,RU,1659066013.0
mareeba,-17.129513000000003,143.92421903082817,20.0,4.0,6.26,83.8,AU,1659066013.0
ostrovnoy,68.0544447,39.5129384,85.0,100.0,13.67,50.34,RU,1659066014.0
hilo,19.7073734,-155.0815803,76.0,100.0,6.91,80.19,US,1659066014.0
tura,47.3900474,0.6889268,67.0,0.0,4.61,67.89,FR,1659066015.0
san patricio,27.9695325,-97.7731720386266,76.0,44.0,13.29,84.31,US,1659066015.0
katobu,-4.9408066,122.5275567,49.0,49.0,9.46,85.75,ID,1659066016.0
ossora,59.247414,163.069931,67.0,62.0,7.7,55.81,RU,1659066016.0
araioses,-2.890914,-41.904993,82.0,81.0,7.83,76.66,BR,1659066017.0
lompoc,34.6391501,-120.4579409,86.0,100.0,10.0,64.54,US,1659066017.0
huarmey,-10.0687481,-78.152199,85.0,45.0,9.42,61.61,PE,1659066018.0
opole,50.6668184,17.9236408,69.0,40.0,5.37,58.24,PL,1659066019.0
makakilo city,21.3469444,-158.0858333,56.0,20.0,11.5,84.52,US,1659066019.0
bethel,60.7922222,-161.7558333,45.0,75.0,13.8,66.54,US,1659066020.0
nikolskoye,59.7034799,30.7861084,85.0,20.0,4.03,62.87,RU,1659066020.0
abai,41.345528,68.968697,19.0,0.0,6.44,86.81,UZ,1659066021.0
vaasa,63.081820949999994,21.479812522296804,94.0,87.0,4.61,59.0,FI,1659066021.0
kutum,14.2108373,24.649584,62.0,100.0,6.31,75.09,SD,1659066022.0
flinders,-20.862898,144.2526073309786,24.0,3.0,16.87,70.68,AU,1659066022.0
saint-joseph,49.5344534,-1.529802,100.0,91.0,3.44,59.56,FR,1659066023.0
the valley,18.2145861,-63.0517759,76.0,7.0,21.12,82.15,AI,1659066023.0
nouadhibou,20.9127045,-17.0503094,82.0,8.0,21.63,71.08,MR,1659066024.0
pasighat,28.0589676,95.3324944,79.0,44.0,3.04,85.78,IN,1659066024.0
itoman,26.106017,127.686066,71.0,40.0,8.05,89.58,JP,1659066025.0
ocampo,27.3150222,-102.3967266,42.0,57.0,15.97,81.07,MX,1659066025.0
vila velha,-20.3297037,-40.2920174,87.0,20.0,6.91,71.55,BR,1659066026.0
esperance,-33.858228,121.8931606,63.0,75.0,14.38,68.16,AU,1659066026.0
iqaluit,63.74944,-68.521857,66.0,100.0,3.44,53.55,CA,1659066027.0
khatanga,71.9819205,102.4714765,46.0,65.0,6.42,72.91,RU,1659066027.0
havre-saint-pierre,50.2463647,-63.6003951,94.0,100.0,10.36,59.31,CA,1659066028.0
sitka,57.0524973,-135.337612,88.0,100.0,12.66,58.82,US,1659066028.0
luderitz,-26.6500086,15.157266,85.0,83.0,5.46,52.59,NA,1659066029.0
komsomolskiy,43.98266,46.6950001,52.0,0.0,4.68,79.11,RU,1659066029.0
yokote,39.3137847,140.5667433,57.0,83.0,3.69,86.29,JP,1659066029.0
mys shmidta,68.8928813,-179.4130958,83.0,64.0,11.01,38.98,RU,1659066030.0
westport,41.1414855,-73.3578955,90.0,0.0,5.75,81.28,US,1659065763.0
aklavik,68.2182579,-135.013585,74.0,100.0,12.8,48.67,CA,1659066031.0
shubarkuduk,49.1431517,56.4820258,52.0,45.0,5.14,75.11,KZ,1659066031.0
timisoara,45.7538355,21.2257474,89.0,0.0,5.75,70.11,RO,1659066032.0
jonesboro,35.8428646,-90.7034522,88.0,0.0,3.44,78.82,US,1659066032.0
winnemucca,40.9724275,-117.7348184,16.0,0.0,10.36,91.36,US,1659066032.0
garm,39.0274695,70.3738916,32.0,69.0,6.64,83.97,TJ,1659066033.0
shieli,45.8735444,17.8514053,53.0,10.0,0.89,69.12,HU,1659066033.0
midland,31.9973662,-102.0779482,33.0,0.0,14.97,92.07,US,1659065995.0
harper,41.3624875,-92.0510088,76.0,21.0,2.84,67.44,US,1659066034.0
sao lourenco da serra,-23.8535923,-46.9440587,54.0,78.0,6.02,71.02,BR,1659066035.0
tamandare,-8.7500009,-35.1045787,88.0,44.0,0.63,73.15,BR,1659066035.0
vestmannaeyjar,63.42704985,-20.269317184750797,80.0,100.0,5.03,48.99,IS,1659066035.0
mehamn,71.0349713,27.8517178,76.0,40.0,8.05,51.6,NO,1659066036.0
vryburg,-26.955347,24.7300938,43.0,33.0,17.63,54.84,ZA,1659066037.0
kapuskasing,49.416667,-82.433333,100.0,100.0,5.75,57.29,CA,1659066037.0
richards bay,-28.7707857,32.0577775,79.0,3.0,15.39,65.39,ZA,1659066037.0
acari,-22.8221528,-43.3406743,77.0,0.0,2.3,71.55,BR,1659066038.0
norman wells,65.282401,-126.832725,42.0,40.0,0.0,68.04,CA,1659066038.0
cockburn town,21.4607723,-71.1399956,75.0,82.0,20.96,81.66,TC,1659066039.0
la rioja,-29.4127411,-66.8558795,57.0,2.0,2.91,52.52,AR,1659065952.0
port hedland,-20.3111814,118.5801181,14.0,0.0,16.11,80.64,AU,1659066039.0
hami,42.817404,93.5142008,13.0,100.0,4.32,95.38,CN,1659066040.0
pacific grove,36.6211149,-121.9177944,90.0,100.0,8.05,64.49,US,1659066040.0
goundam,16.4168533,-3.6636275,65.0,49.0,20.33,81.12,ML,1659066041.0
bambous virieux,-20.347199500000002,57.76474767388835,64.0,40.0,8.05,70.36,MU,1659066041.0
flin flon,54.769801,-101.878967,54.0,51.0,6.6,61.7,CA,1659066042.0
faanui,-16.48243875,-151.73383197031578,73.0,3.0,22.12,78.4,PF,1659066042.0
channarayapatna,13.2455918,77.797084,88.0,40.0,2.3,78.89,IN,1659066043.0
san carlos de bariloche,-41.1334421,-71.3098425,70.0,0.0,10.36,39.76,AR,1659066043.0
thompson,55.743347,-97.863464,72.0,40.0,0.0,62.78,CA,1659066043.0
port-gentil,-0.7149116,8.7797434,79.0,99.0,9.33,73.08,GA,1659066044.0
bendigo,-36.7588767,144.2825931,46.0,6.0,1.99,58.01,AU,1659066044.0
chuy,-33.6937948,-53.4561114,81.0,100.0,17.18,49.71,BR,1659066045.0
gurlan,41.8447222,60.3898845,41.0,41.0,14.99,78.87,UZ,1659066045.0
abu dhabi,24.4538352,54.3774014,61.0,0.0,11.5,87.82,AE,1659066046.0
fortuna,40.597407,-124.156034,94.0,100.0,8.05,58.82,US,1659066046.0
kinablangan,7.6916245,126.5519172,70.0,100.0,6.76,86.16,PH,1659066047.0
attawapiskat,52.9244075,-82.4270112,100.0,100.0,11.5,53.6,CA,1659066047.0
saint-philippe,45.3584499,-73.4790045,90.0,40.0,4.61,72.12,CA,1659066048.0
mocambique,-2.9585478,-44.0419505,97.0,19.0,3.24,80.51,BR,1659066048.0
kushiro,42.9849503,144.3820491,83.0,75.0,12.66,74.39,JP,1659066048.0
mount gambier,-37.8246698,140.7820067624113,52.0,49.0,2.62,54.59,AU,1659066049.0
palabuhanratu,-6.9882409,106.5503728,68.0,68.0,5.08,85.8,ID,1659066049.0
arraial do cabo,-22.9662839,-42.024427,88.0,24.0,21.92,70.43,BR,1659066050.0
souillac,44.8980172,1.46943,83.0,100.0,2.51,64.11,FR,1659066050.0
krasnyy chikoy,50.364742,108.75798,51.0,60.0,1.21,70.92,RU,1659066051.0
constitucion,-35.3318306,-72.4118998,81.0,0.0,7.7,47.86,CL,1659066051.0
paamiut,61.994618,-49.6659478,88.0,100.0,2.51,42.17,GL,1659066052.0
sahrak,34.107375,64.305199,31.0,7.0,5.79,71.49,AF,1659066052.0
puerto escondido,15.8693331,-97.0726428,65.0,100.0,4.61,80.31,MX,1659066053.0
liwale,-9.8021605,37.9157087,81.0,44.0,4.59,60.73,TZ,1659066053.0
jericho,31.855991,35.4598851,55.0,29.0,4.92,86.92,PS,1659066054.0
lasa,43.1571441,-1.2601799,95.0,79.0,1.01,63.88,FR,1659066054.0
sumen,43.2703797,26.9247362,69.0,20.0,1.05,66.18,BG,1659066054.0
pawayan,28.0671465,80.0973671,62.0,70.0,5.95,88.61,IN,1659066055.0
alice springs,-23.6983884,133.8812885,32.0,13.0,9.22,69.22,AU,1659066055.0
praia,14.9162811,-23.5095095,47.0,20.0,12.66,81.18,CV,1659066056.0
chokurdakh,70.6193824,147.902397,28.0,87.0,14.81,64.0,RU,1659066056.0
nemuro,43.3301154,145.5829068,87.0,97.0,6.2,62.64,JP,1659066057.0
port lincoln,-34.7284175,135.8563199414681,62.0,73.0,14.29,58.21,AU,1659066057.0
verkhnevilyuysk,63.4497609,120.3146678,35.0,0.0,11.14,88.12,RU,1659066058.0
xining,36.617331,101.7761976,53.0,2.0,1.32,75.76,CN,1659066059.0
khanpur,28.6477403,70.656008,65.0,100.0,15.41,87.73,PK,1659066059.0
haines junction,60.7527212,-137.5100384,48.0,98.0,3.44,66.15,CA,1659066059.0
ilheus,-14.792599,-39.0453843,89.0,29.0,1.36,66.7,BR,1659066060.0
saint george,12.0535331,-61.751805,77.0,4.0,13.62,78.82,GD,1659066060.0
las palmas,28.1288694,-15.4349015,85.0,77.0,14.67,73.38,ES,1659066061.0
kavieng,-2.573474,150.795224,71.0,72.0,15.64,84.38,PG,1659066061.0
swan river,52.1050567,-101.2705406,72.0,95.0,2.3,60.69,CA,1659066062.0
namatanai,-3.6641739,152.4407285,69.0,46.0,13.29,84.92,PG,1659066063.0
grand gaube,-20.0086191,57.6644156,68.0,0.0,5.01,70.2,MU,1659066064.0
namibe,-15.195064,12.1458085,84.0,56.0,7.85,59.59,AO,1659066066.0
rudnichnyy,59.698711,60.288403,56.0,2.0,3.31,67.39,RU,1659066066.0
baia-sprie,47.6615913,23.6922094,64.0,40.0,3.44,69.62,RO,1659066067.0
glenluce,-37.1798905,144.24393564801233,49.0,6.0,5.35,56.55,AU,1659066067.0
camana,-11.9873096,-73.1217654,77.0,23.0,3.4,70.99,PE,1659066068.0
grand river south east,-20.2907247,57.7851931,64.0,40.0,8.05,70.3,MU,1659066069.0
airai,-8.92655,125.40922,41.0,61.0,4.65,71.96,TL,1659066060.0
santa isabel do rio negro,-0.4160389,-65.0153096,96.0,98.0,2.82,72.95,BR,1659066070.0
saskylakh,71.9649533,114.0939433,76.0,100.0,4.09,62.74,RU,1659066071.0
hofn,64.2532647,-15.2080441,83.0,100.0,5.61,52.21,IS,1659066071.0
sorland,67.6660386,12.69192,90.0,100.0,15.64,53.46,NO,1659066072.0
faya,13.6777637,-6.1585269,92.0,100.0,11.97,71.58,ML,1659066072.0
mahibadhoo,3.7572007,72.9696123,78.0,45.0,13.44,81.54,MV,1659066073.0
olafsvik,64.8959304,-23.7084345,82.0,64.0,10.8,44.96,IS,1659066073.0
oranjemund,-28.551932,16.428415,73.0,100.0,6.8,55.89,NA,1659066074.0
alotau,-10.3060931,150.4464005,81.0,84.0,7.54,81.07,PG,1659066074.0
garissa,-0.4567099,39.6404713,83.0,31.0,8.75,70.21,KE,1659066075.0
hirara,24.8032045,125.3029776,70.0,40.0,12.66,89.82,JP,1659066075.0
samusu,-13.9974088,-171.4288872,79.0,29.0,19.33,80.29,WS,1659066076.0
evensk,61.919209,159.235931,61.0,95.0,5.21,55.6,RU,1659066077.0
urengoy,65.9623488,78.3718646,61.0,24.0,9.51,69.94,RU,1659066077.0
port hardy,50.7244402,-127.4976081,64.0,0.0,5.75,71.58,CA,1659066078.0
lebu,-37.6099644,-73.6559477,87.0,6.0,20.4,48.02,CL,1659066078.0
verkhnyaya inta,65.988403,60.323444,45.0,20.0,14.63,72.79,RU,1659066079.0
berlevag,70.79904505,29.150528646532546,81.0,100.0,9.22,45.81,NO,1659066079.0
kiknur,57.3049331,47.2089404,73.0,1.0,8.55,66.38,RU,1659066080.0
medicine hat,50.04303,-110.679016,28.0,20.0,5.75,81.34,CA,1659066080.0
nalut,31.8637865,10.9827903,41.0,0.0,4.18,75.38,LY,1659066081.0
leh,34.1642029,77.5848133,67.0,99.0,2.46,60.48,IN,1659066081.0
lagoa,37.13258125,-8.45505094811731,76.0,0.0,10.31,72.88,PT,1659066082.0
valleyview,39.96487625,-83.07291773060578,78.0,0.0,4.61,77.43,US,1659066082.0
cooma,-36.23563,149.1264221,46.0,31.0,12.33,45.27,AU,1659066083.0
coquimbo,-29.9531928,-71.3379884,100.0,0.0,4.61,51.67,CL,1659066083.0
baykit,61.6808261,96.3830221,75.0,100.0,9.48,73.92,RU,1659066084.0
erzincan,39.7467552,39.49103,82.0,0.0,2.3,52.88,TR,1659066084.0
gayeri,12.649722,0.493056,88.0,100.0,6.33,74.68,BF,1659066085.0
urucui,-7.2363099,-44.555387,49.0,4.0,3.56,72.7,BR,1659066085.0
marquette,46.5434914,-87.396433,85.0,25.0,6.17,60.78,US,1659066086.0
talcahuano,-36.7144863,-73.1141463,71.0,0.0,11.5,50.05,CL,1659066086.0
olinda,-7.9986401,-34.8459552,88.0,40.0,3.44,73.42,BR,1659066087.0
anchorage,61.2163129,-149.894852,45.0,0.0,8.05,74.35,US,1659065507.0
quime,-16.9799847,-67.2157204,63.0,77.0,1.23,47.01,BO,1659066087.0
raga,11.80501475,10.530188496056002,78.0,76.0,6.87,73.13,NG,1659066088.0
upernavik,72.7847392,-56.1469625,71.0,95.0,5.82,42.3,GL,1659066088.0
soe,44.5391105,18.675193,88.0,0.0,2.3,55.42,BA,1659066089.0
boca do acre,-8.7553487,-67.3930873,58.0,8.0,0.96,73.0,BR,1659066089.0
galveston,29.299328,-94.7945882,80.0,1.0,15.01,85.01,US,1659066089.0
ijui,-28.3878734,-53.9201692,89.0,96.0,12.75,51.67,BR,1659066090.0
mosta,35.9079178,14.4241508,94.0,20.0,5.75,79.45,MT,1659066090.0
shache,38.4170434,77.2411446,16.0,21.0,16.04,93.94,CN,1659066091.0
lufkin,31.3386242,-94.7288558,73.0,0.0,8.05,84.33,US,1659066091.0
lebyazhye,59.9615811,29.4166768,77.0,77.0,9.35,60.42,RU,1659066092.0
te anau,-45.41449,167.717489,94.0,88.0,2.37,41.68,NZ,1659066093.0
muros,40.678061,8.617315,59.0,0.0,2.51,63.05,IT,1659066093.0
dunedin,-45.8740984,170.5035755,73.0,99.0,4.0,47.8,NZ,1659066093.0
sola,58.882082249999996,5.356254245388384,94.0,40.0,4.61,54.41,NO,1659066094.0
eydhafushi,5.10263945,73.07018031022065,80.0,100.0,16.2,81.0,MV,1659066094.0
ilhabela,-23.816628,-45.368685,52.0,37.0,6.58,73.69,BR,1659066095.0
la garriga,41.6849111,2.2865796,89.0,2.0,1.88,75.25,ES,1659066095.0
troy,42.7284117,-73.6917878,90.0,7.0,3.0,74.53,US,1659065577.0
bengkulu,-3.7922858,102.2623797,67.0,83.0,8.03,84.42,ID,1659066096.0
chamba,45.7556472,3.7577075,77.0,89.0,1.52,53.96,FR,1659066096.0
alferrarede,39.4793431,-8.1806275,84.0,0.0,1.01,64.71,PT,1659066097.0
nurota,40.5590414,65.6860362,24.0,0.0,7.81,85.46,UZ,1659066097.0
kommunisticheskiy,61.67886,64.483383,39.0,5.0,3.18,71.85,RU,1659066098.0
yellowknife,62.4540807,-114.377385,48.0,75.0,14.97,64.58,CA,1659066098.0
majene,-3.5459286,118.9607438,67.0,38.0,13.91,85.41,ID,1659066099.0
kochubey,44.3931419,46.5397827,47.0,0.0,5.93,80.67,RU,1659066099.0
ovalle,-30.6030819,-71.2029894,71.0,50.0,1.39,56.3,CL,1659066100.0
san cristobal,7.7756663,-72.2214154,94.0,99.0,1.36,67.87,VE,1659066100.0
tecolutla,20.4774753,-97.008441,81.0,88.0,11.32,81.64,MX,1659066101.0
severo-kurilsk,50.6683048,156.1154399,88.0,98.0,10.18,55.63,RU,1659066101.0
luau,-10.7025518,22.2275381,44.0,59.0,4.74,56.01,AO,1659066101.0
goderich,43.7430924,-81.7110949,82.0,16.0,1.14,71.51,CA,1659066102.0
poltavka,54.831326,70.311897,94.0,100.0,13.8,59.4,KZ,1659066102.0
mangaluru,12.8698101,74.8430082,78.0,75.0,3.44,83.17,IN,1659066103.0
candolim,15.5201532,73.7659422,94.0,40.0,3.44,78.62,IN,1659066103.0
orange park,30.1654707,-81.7016346,81.0,0.0,0.0,83.01,US,1659066104.0
sept-iles,50.2109579,-66.3790642,91.0,75.0,12.66,60.96,CA,1659066104.0
butte,46.0131505,-112.536508,22.0,100.0,10.36,79.93,US,1659066105.0
teguldet,57.306404,88.167168,53.0,77.0,4.92,75.18,RU,1659066105.0
dibaya,-6.4873146,22.943906,51.0,77.0,4.63,64.45,CD,1659066105.0
mae sai,43.2961743,5.3699525,55.0,0.0,4.61,76.89,FR,1659066106.0
petrivka,48.3874267,37.7827946,76.0,6.0,9.6,70.52,UA,1659066106.0
itinga,-16.6066757,-41.7702077,65.0,0.0,3.31,63.46,BR,1659066107.0
yashkul,46.174168,45.343464,45.0,0.0,2.95,80.04,RU,1659066107.0
kuche,34.514402,48.0521542,32.0,0.0,2.55,78.17,IR,1659066108.0
banmo,22.3046,106.934,42.0,100.0,3.76,91.6,CN,1659066108.0
skole,49.0378559,23.5140979,89.0,25.0,1.3,57.94,UA,1659066109.0
laguna,28.4857715,-16.3159422,96.0,100.0,18.99,69.57,ES,1659066109.0
channel-port aux basques,47.594932549999996,-59.132478200471056,85.0,2.0,9.19,61.32,CA,1659066110.0
manono,-13.85082285,-172.1094688399685,66.0,75.0,10.36,89.02,WS,1659066110.0
palasa,18.7694542,84.4179944,63.0,41.0,6.82,88.57,IN,1659066110.0
trogir,43.5164142,16.2497163,73.0,0.0,1.14,72.9,HR,1659066111.0
sisimiut,66.9371906,-53.6664816,92.0,100.0,3.24,41.85,GL,1659066111.0
doctor pedro p. pena,-22.4590792,-62.3361797,57.0,100.0,15.79,59.29,AR,1659066112.0
georgetown,6.8137426,-58.1624465,82.0,80.0,4.52,75.49,GY,1659066112.0
mashhad,36.2974945,59.6059232,39.0,0.0,0.0,84.34,IR,1659066113.0
umm kaddadah,13.6002208,26.6892786,64.0,99.0,10.22,79.11,SD,1659066113.0
victoria,48.4283182,-123.3649533,72.0,0.0,32.21,80.71,CA,1659066114.0
guiglo,6.43034025,-7.5909032112704775,97.0,72.0,1.66,64.2,CI,1659066114.0
mount isa,-20.7289898,139.4931522,18.0,3.0,11.5,73.26,AU,1659066115.0
zhigansk,66.76564,123.3741,44.0,93.0,4.32,79.86,RU,1659066115.0
birjand,32.8633961,59.2177294,24.0,0.0,11.5,79.16,IR,1659066116.0
kouqian,39.679581,112.61926,35.0,25.0,5.7,79.47,CN,1659066116.0
husavik,66.0433168,-17.3410402,96.0,100.0,12.77,45.91,IS,1659066117.0
deniliquin,-35.5302183,144.9597178,43.0,5.0,9.1,56.01,AU,1659066117.0
enugu,6.4499833,7.5000007,97.0,100.0,4.03,70.45,NG,1659066118.0
bay roberts,47.575924,-53.2833409,90.0,99.0,5.01,56.05,CA,1659066118.0
wa,10.0623261,-2.5054273,95.0,100.0,6.8,70.75,GH,1659066118.0
onguday,50.7495872,86.1335256,56.0,80.0,1.61,74.84,RU,1659066119.0
rancho palos verdes,33.7483311,-118.3707683,84.0,40.0,12.66,75.27,US,1659066119.0
camacupa,-12.0203585,17.4763605,38.0,71.0,3.09,51.67,AO,1659066120.0
klaksvik,62.2266084,-6.5852705,87.0,100.0,17.74,52.84,FO,1659066120.0
palauig,15.4334062,119.9099993,70.0,43.0,7.36,86.77,PH,1659066121.0
taitung,22.7560447,121.1456538,58.0,20.0,8.05,91.71,TW,1659066121.0
abu zabad,12.35,29.25,89.0,84.0,8.99,71.69,SD,1659066122.0
gonen,40.1044116,27.6563981,50.0,42.0,10.85,76.03,TR,1659066122.0
kamenskoye,53.1793307,37.7767378,86.0,42.0,9.82,59.18,RU,1659066123.0
tuatapere,-46.1323096,167.6907627,85.0,99.0,7.99,44.01,NZ,1659066123.0
nevelsk,46.6877802,141.8601144,86.0,100.0,6.91,69.19,RU,1659066124.0
koppang,61.5723292,11.0461098,76.0,70.0,0.92,48.76,NO,1659066125.0
sao filipe,14.8952963,-24.4969361,79.0,2.0,13.78,77.76,CV,1659066125.0
geraldton,-28.77035,114.6147159,94.0,75.0,8.05,62.76,AU,1659066126.0
pimpri,21.2644883,77.6830736,67.0,100.0,6.26,84.74,IN,1659066126.0
san quintin,30.5613719,-115.9381624,83.0,26.0,6.4,68.11,MX,1659066127.0
hokitika,-42.7178871,170.9646469,91.0,100.0,6.31,48.6,NZ,1659066127.0
nenjiang,49.1734835,125.231228,79.0,100.0,3.69,73.53,CN,1659066128.0
waipawa,-39.9411333,176.591342,64.0,3.0,11.72,54.05,NZ,1659066128.0
sur,33.2721211,35.1964023,63.0,0.0,1.74,72.84,LB,1659066129.0
hamilton,43.2560802,-79.8728583,68.0,91.0,2.3,73.94,CA,1659066130.0
louis trichardt,-23.038326,29.906665,86.0,0.0,2.77,48.74,ZA,1659066130.0
raton,36.8991669,-104.436442,96.0,100.0,8.05,63.0,US,1659066131.0
cedar city,37.6774238,-113.061827,60.0,40.0,8.05,68.97,US,1659066131.0
havelock,34.8785,-76.9014457,90.0,0.0,11.5,82.94,US,1659066132.0
dhanwar,24.4107515,85.9818431,50.0,45.0,4.59,90.19,IN,1659066132.0
bilibino,68.0550305,166.4448515,45.0,87.0,11.18,56.66,RU,1659066133.0
healdsburg,38.6298355,-122.85900211842105,77.0,0.0,12.66,71.19,US,1659065639.0
tevaitoa,-16.78176695,-151.47083353757228,74.0,3.0,22.17,77.11,PF,1659066133.0
funadhoo,6.1541663,73.28901152576822,85.0,100.0,15.82,79.09,MV,1659066134.0
port blair,11.6645348,92.7390448,74.0,40.0,6.91,85.42,IN,1659066135.0
strezhevoy,60.732758,77.600807,54.0,7.0,9.73,67.48,RU,1659066135.0
isangel,-19.5410863,169.2810885,78.0,75.0,4.61,79.83,VU,1659066136.0
provideniya,64.4238198,-173.2275013,93.0,75.0,8.95,46.99,RU,1659066136.0
phan rang,11.5769829,108.9865391,61.0,58.0,4.97,89.6,VN,1659066137.0
ahuimanu,21.4406125,-157.8321451624266,65.0,40.0,11.5,85.69,US,1659066137.0
hamina,60.5688901,27.1881877,88.0,22.0,10.2,56.55,FI,1659066138.0
ust-nera,64.566376,143.237839,31.0,100.0,4.72,73.06,RU,1659066138.0
ponta do sol,32.681067,-17.104073,80.0,16.0,4.41,72.41,PT,1659066139.0
kirillov,59.8588453,38.3760743,97.0,100.0,4.5,58.03,RU,1659066140.0
umzimvubu,-30.82491,28.92177617804983,64.0,49.0,7.63,49.8,ZA,1659066140.0
nyrob,60.7430341,56.73349,57.0,22.0,1.34,67.89,RU,1659066140.0
port moresby,-9.4743301,147.1599504,79.0,40.0,17.27,86.95,PG,1659066141.0
andrews,32.3187158,-102.545715,31.0,0.0,5.75,89.28,US,1659065968.0
mudgee,-32.5980702,149.5886383,41.0,6.0,8.1,57.7,AU,1659066142.0
fare,45.90802,13.5165379,71.0,100.0,8.05,73.87,IT,1659066142.0
luganville,-15.5121107,167.1784414,72.0,85.0,4.68,81.99,VU,1659066143.0
tiksi,71.636604,128.868546,76.0,99.0,9.19,54.14,RU,1659066143.0
puerto colombia,2.4954965,-68.27051058033612,98.0,98.0,2.26,70.0,CO,1659066144.0
deputatskiy,54.8408485,61.1269918,81.0,94.0,12.59,58.33,RU,1659066144.0
lavrentiya,65.5837793,-171.0058116,87.0,99.0,5.61,45.72,RU,1659066145.0
mandalgovi,45.7630435,106.2704145,30.0,22.0,9.4,75.58,MN,1659066145.0
oudtshoorn,-33.5902954,22.204206,72.0,0.0,6.82,50.23,ZA,1659066146.0
maragogi,-9.0118278,-35.222512,90.0,38.0,1.21,72.23,BR,1659066146.0
sao felix do xingu,-6.6386974,-51.9787582,52.0,3.0,0.6,70.38,BR,1659066147.0
margate,51.3878174,1.3819699,83.0,59.0,8.52,61.81,GB,1659066147.0
dehui,44.5350141,125.6954363,90.0,91.0,15.86,74.03,CN,1659066148.0
rio gallegos,-51.64607595,-69.26322885452636,93.0,0.0,25.32,39.27,AR,1659066148.0
kuusankoski,60.9069347,26.6241933,97.0,40.0,5.75,55.92,FI,1659066148.0
litovko,49.2392982,135.1775848,77.0,100.0,3.0,82.18,RU,1659066149.0
siguiri,11.4195265,-9.1751513,93.0,57.0,8.5,71.53,GN,1659066149.0
cotonou,6.3676953,2.4252507,83.0,40.0,11.5,76.96,BJ,1659066150.0
riyadh,24.638916,46.7160104,36.0,100.0,5.01,93.58,SA,1659066150.0
louisbourg,45.9234791,-59.9642959,96.0,15.0,5.64,62.04,CA,1659066151.0
waddan,29.1613826,16.141311,42.0,0.0,4.63,79.12,LY,1659066151.0
jizan,16.894719,42.5579758,79.0,40.0,4.61,89.6,SA,1659066152.0
port shepstone,-30.742778,30.450556,64.0,36.0,10.02,65.05,ZA,1659066152.0
santa,45.6039807,9.3005709,85.0,40.0,1.14,70.57,IT,1659066153.0
salalah,17.0174945,54.1010923,88.0,100.0,6.91,77.07,OM,1659066153.0
menongue,-14.6610713,17.6820336,46.0,65.0,5.21,48.54,AO,1659066154.0
soyo,-6.1333775,12.3717566,89.0,26.0,3.71,68.81,AO,1659066154.0
bud,37.5376145,-81.3792689,99.0,90.0,2.8,75.02,US,1659066155.0
oyama,36.3147373,139.800148,40.0,1.0,2.95,96.06,JP,1659066155.0
rawson,-43.2991348,-65.1056655,56.0,0.0,15.41,46.96,AR,1659066155.0
meulaboh,4.1481951,96.1339107,96.0,100.0,2.64,74.7,ID,1659066156.0
nikolayevsk-na-amure,53.138729,140.72493,35.0,76.0,1.14,84.13,RU,1659066156.0
bathsheba,13.2129361,-59.5227245,85.0,40.0,18.41,81.0,BB,1659066157.0
aasiaat,68.709588,-52.8512976,89.0,100.0,6.4,38.64,GL,1659066157.0
gao,16.2788129,-0.0412392,68.0,100.0,11.81,78.87,ML,1659066158.0
matay,6.7729896,-9.64194,99.0,43.0,1.05,64.65,LR,1659066158.0
najran,17.5439809,44.2246817,31.0,29.0,3.67,81.66,SA,1659066159.0
dong hoi,17.4659566,106.5984715,53.0,100.0,5.82,92.71,VN,1659066159.0
quelimane,-17.87751,36.890216,94.0,20.0,4.61,60.75,MZ,1659066160.0
beloha,-25.173872,45.061465,82.0,0.0,12.24,63.37,MG,1659066160.0
belle fourche,44.670905,-103.851407,32.0,0.0,6.6,70.34,US,1659066161.0
mbeya,-8.906508,33.468672,94.0,88.0,5.03,51.1,TZ,1659066162.0
marcona,-15.2155331,-75.08303444567473,90.0,97.0,11.54,50.76,PE,1659066163.0
conchal,-22.337512,-47.172927,52.0,96.0,4.9,65.8,BR,1659066163.0
atambua,-9.1059581,124.888064,46.0,94.0,2.28,81.59,ID,1659066163.0
codrington,17.640463,-61.8255199,70.0,15.0,21.18,81.25,AG,1659066164.0
aksha,50.280815,113.285149,54.0,10.0,5.32,73.15,RU,1659066164.0
ahipara,-35.1664105,173.1562074,69.0,48.0,6.71,59.4,NZ,1659066165.0
kungurtug,50.5986817,97.5254386,44.0,69.0,2.51,64.71,RU,1659066165.0
ivrea,45.4673791,7.874797,74.0,56.0,5.28,70.34,IT,1659066166.0
cobija,-11.0184614,-68.7538149,58.0,31.0,1.66,74.1,BR,1659066166.0
joutseno,61.123034,28.5014586,99.0,33.0,10.11,55.49,FI,1659066167.0
ormara,25.2105634,64.6374914,79.0,100.0,10.11,82.0,PK,1659066167.0
ulcinj,41.926012,19.2055563,63.0,0.0,5.12,75.31,ME,1659066168.0
keti bandar,24.1438796,67.4510995,73.0,100.0,14.38,83.66,PK,1659066168.0
rosetown,51.554815,-107.9912859,49.0,0.0,8.05,69.78,CA,1659066168.0
henties bay,-22.1130313,14.2881683522115,90.0,3.0,7.43,52.3,NA,1659066169.0
denpasar,-8.6524973,115.2191175,74.0,40.0,16.11,83.88,ID,1659066169.0
fort nelson,58.8062066,-122.6942704,88.0,100.0,5.75,64.04,CA,1659066170.0
marsa matruh,31.3528567,27.2395262,88.0,0.0,2.3,73.6,EG,1659066170.0
valjala,58.4089523,22.7925533,73.0,11.0,9.57,54.93,EE,1659066171.0
camacha,32.679439,-16.8448679,81.0,40.0,13.8,64.6,PT,1659066171.0
na wa,17.4855437,104.0968694,55.0,100.0,2.55,94.26,TH,1659066172.0
mariveles,14.4341194,120.4860844,77.0,92.0,10.42,82.58,PH,1659066172.0
basco,40.3278229,-91.2001437,62.0,85.0,7.94,72.05,US,1659066173.0
mamakan,37.9899233,44.7711851,56.0,0.0,0.98,60.03,IR,1659066173.0
jalu,29.0331149,21.5482209,40.0,0.0,10.96,80.11,LY,1659066174.0
homer,59.6440876,-151.5401477,69.0,0.0,10.0,65.79,US,1659066174.0
tiarei,-17.558316750000003,-149.37107895658022,79.0,7.0,23.85,77.22,PF,1659066175.0
stornoway,58.20842,-6.3881077,93.0,22.0,0.0,48.92,GB,1659066175.0
praia da vitoria,38.739237599999996,-27.156264396780458,83.0,20.0,2.82,68.72,PT,1659066176.0
penzance,50.1213173,-5.5329266,75.0,87.0,2.28,57.99,GB,1659066176.0
brigantine,39.4101171,-74.3645906,73.0,75.0,12.66,80.8,US,1659066177.0
ihiala,5.8552964,6.8601091,98.0,100.0,2.82,70.59,NG,1659066177.0
ketchikan,55.3430696,-131.6466819,73.0,0.0,10.36,70.27,US,1659066178.0
seymchan,62.9317742,152.3932993,34.0,29.0,13.71,66.33,RU,1659066178.0
gornopravdinsk,60.060318,69.92292,54.0,98.0,8.32,66.74,RU,1659066179.0
pokhara,28.209538,83.991402,83.0,95.0,2.13,77.16,NP,1659066179.0
general roca,-39.0266276,-67.5754863,57.0,0.0,13.51,52.57,AR,1659066179.0
qinzhou,21.9647835,108.620787,47.0,99.0,7.58,93.58,CN,1659066180.0
aksehir,38.3588503,31.4201959,32.0,0.0,3.8,70.68,TR,1659066180.0
kenitra,34.26457,-6.570169,85.0,7.0,5.82,65.21,MA,1659066181.0
bulalacao,12.3261931,121.3437406,74.0,99.0,14.81,85.41,PH,1659066181.0
adana,36.9863599,35.3252861,100.0,20.0,5.75,76.86,TR,1659066182.0
aguimes,27.9049541,-15.4445131,73.0,75.0,27.0,70.43,ES,1659066182.0
rocha,46.6705431,-1.4269698,82.0,0.0,2.3,62.82,FR,1659066183.0
glubokoe,50.1438305,82.3169517,44.0,75.0,4.47,81.66,KZ,1659066183.0
duyun,26.2631518,107.5144965,65.0,4.0,2.91,84.65,CN,1659066184.0
xiaoweizhai,26.2292619,107.512855,65.0,4.0,3.09,84.83,CN,1659066184.0
cerqueira cesar,-23.0353135,-49.1650519,45.0,85.0,5.01,62.91,BR,1659066185.0
turukhansk,65.7934285,87.9589375,50.0,0.0,12.95,69.15,RU,1659066186.0
montague,41.728267,-122.527392,15.0,0.0,12.66,102.63,US,1659066186.0
gejiu,23.3618738,103.1577391,69.0,78.0,3.36,75.09,CN,1659066187.0
longyearbyen,78.2231558,15.6463656,87.0,75.0,3.44,43.07,SJ,1659066187.0
loiza,18.4326667,-65.8798436,83.0,40.0,8.05,80.58,PR,1659066188.0
carnarvon,-24.8826131,113.6576486,66.0,100.0,8.05,71.33,AU,1659066188.0
port-cartier,50.0187481,-66.8756913,93.0,99.0,15.03,61.05,CA,1659066189.0
srednekolymsk,67.455497,153.7071456,28.0,5.0,10.78,69.03,RU,1659066190.0
mayumba,-1.9758042,121.0572189,86.0,99.0,3.49,77.25,ID,1659066190.0
broome,-17.9566909,122.2240181,35.0,0.0,14.07,79.38,AU,1659066191.0
casambalangan,18.3751678,122.1265072,68.0,100.0,7.36,87.64,PH,1659066191.0
half moon bay,37.4635519,-122.428586,87.0,100.0,13.8,66.11,US,1659066192.0
qianguo,31.5645509,117.9819442,75.0,99.0,2.01,84.52,CN,1659066192.0
orneta,54.1155533,20.1303378,89.0,5.0,4.65,52.77,PL,1659066193.0
egvekinot,66.3227382,-179.1201311,73.0,97.0,4.54,51.98,RU,1659066193.0
korla,41.7238743,86.173541,20.0,93.0,13.94,91.94,CN,1659066194.0
narsaq,60.9127453,-46.0452698,64.0,77.0,2.39,46.65,GL,1659066194.0
tuzha,57.6053835,47.9373723,72.0,10.0,6.76,67.05,RU,1659066195.0
talaya,55.7870061,84.8934553,58.0,3.0,9.53,73.92,RU,1659066195.0
belen,52.5170365,13.3888599,71.0,0.0,7.0,61.95,DE,1659066196.0
kolondieba,11.0885197,-6.8934164,94.0,79.0,6.33,72.3,ML,1659066196.0
touros,-5.1998625,-35.4595051,87.0,83.0,10.94,74.46,BR,1659066197.0
lorengau,-2.0329567,147.2789185,73.0,28.0,14.83,83.84,PG,1659066197.0
tazmalt,36.3885111,4.4000106,42.0,0.0,2.82,79.7,DZ,1659066198.0
alihe,43.1776843,0.1159236,94.0,75.0,3.44,60.75,FR,1659066198.0
dwarka,22.2471009,68.9742446,72.0,100.0,11.3,83.16,IN,1659066199.0
awbari,26.5909391,12.7695658,17.0,4.0,7.61,79.2,LY,1659066199.0
ngukurr,-14.7341439,134.7323402,22.0,87.0,20.47,85.33,AU,1659066200.0
beaumont,30.0860459,-94.1018461,86.0,0.0,3.44,80.64,US,1659065868.0
zhanakorgan,43.909836,67.249458,29.0,67.0,9.8,87.37,KZ,1659066201.0
kanelovskaya,46.588024,39.189228,50.0,20.0,4.25,79.18,RU,1659066201.0
naze,5.4519997,7.0566745,98.0,99.0,3.65,71.49,NG,1659066201.0
concordia,45.7561044,12.8449558,81.0,86.0,5.17,73.38,IT,1659066202.0
vardo,70.3308174,30.961751972265887,93.0,100.0,6.91,47.08,NO,1659066203.0
cidreira,-30.1657063,-50.218331,86.0,97.0,18.68,55.29,BR,1659066203.0
paso de los toros,-32.8108095,-56.5174948,73.0,1.0,13.6,47.16,UY,1659066204.0
derzhavinsk,51.0990849,66.3138516,73.0,100.0,14.09,65.48,KZ,1659066204.0
conceicao da barra,-18.5841421,-39.7371844,84.0,0.0,7.67,69.12,BR,1659066204.0
galgani,12.4486,34.2186,87.0,100.0,5.5,72.21,SD,1659066205.0
nakanojo,36.5898911,138.8409055,55.0,3.0,3.0,93.06,JP,1659066205.0
eten,-6.9074587,-79.8628053,89.0,2.0,12.46,61.74,PE,1659066206.0
minot,47.6698594,4.8786165,63.0,82.0,2.28,60.17,FR,1659066206.0
katsuura,35.1521846,140.3207449,76.0,20.0,13.18,84.42,JP,1659066207.0
pevek,69.7028171,170.2746851,73.0,89.0,7.63,41.76,RU,1659066207.0
lata,-10.7241726,165.7977641,74.0,59.0,10.45,82.69,SB,1659066208.0
tanout,14.97119,8.878363,66.0,95.0,11.14,76.35,NE,1659066208.0
pangai,-19.8054603,-174.3489373,74.0,20.0,16.11,80.65,TO,1659066209.0
adrar,27.8733807,-0.2874884,9.0,0.0,13.8,84.42,DZ,1659066209.0
miramar,25.9873137,-80.2322706,77.0,0.0,9.22,85.01,US,1659066118.0
petropavlovsk-kamchatskiy,53.0199838,158.6471356,64.0,62.0,7.09,73.51,RU,1659066210.0
ligayan,4.6550197,119.4700025,70.0,94.0,3.67,83.34,PH,1659066211.0
kupang,-10.1632209,123.6017755,48.0,85.0,6.35,84.33,ID,1659066211.0
ancud,-41.8682162,-73.8287225,77.0,100.0,3.13,44.6,CL,1659066212.0
itarema,-2.9224684,-39.9152184,88.0,99.0,11.45,76.73,BR,1659066212.0
mattru,7.6244395,-11.8332117,89.0,75.0,3.33,70.83,SL,1659066212.0
tianpeng,28.8838283,112.3423091,58.0,18.0,2.24,90.07,CN,1659066213.0
santa cruz,28.469648,-16.2540884,96.0,100.0,18.41,75.42,ES,1659066213.0
dryden,42.4909053,-76.2971553,89.0,0.0,1.01,68.09,US,1659066214.0
tambopata,-12.9191365,-75.7592704,28.0,25.0,9.17,47.16,PE,1659066214.0
gorin,51.198719,136.661621,63.0,100.0,6.44,83.28,RU,1659066215.0
raudeberg,61.9874897,5.135184,80.0,100.0,9.19,52.47,NO,1659066066.0
paciran,-6.8765741,112.392446,59.0,100.0,7.99,85.64,ID,1659066215.0
saint-pierre,48.3832725,7.4718731,86.0,34.0,3.33,66.29,FR,1659066216.0
vila franca do campo,37.7171624,-25.4335352,91.0,17.0,4.52,72.01,PT,1659066216.0
tilichiki,60.429134,166.057053,61.0,89.0,5.82,57.09,RU,1659066217.0
akodia,23.3803855,76.598241,73.0,99.0,9.51,81.25,IN,1659066217.0
vylgort,61.627003,50.768478,82.0,0.0,2.24,64.29,RU,1659066218.0
grahamstown,-33.3070589,26.5272648,53.0,0.0,8.14,56.14,ZA,1659066218.0
daru,-9.069901,143.210029,89.0,86.0,20.33,77.49,PG,1659066218.0
eureka,40.8020712,-124.1636729,87.0,72.0,4.43,58.93,US,1659066011.0
lulindi,-10.8610393,39.1250042,94.0,17.0,2.28,61.27,TZ,1659066219.0
biltine,14.525174,20.928701,71.0,97.0,7.72,78.24,TD,1659066220.0
berdigestyakh,62.098289,126.699837,33.0,27.0,8.52,88.68,RU,1659066220.0
fort-shevchenko,44.508556,50.261929,66.0,0.0,5.88,77.72,KZ,1659066220.0
soma,37.7966579,140.9195032,82.0,56.0,6.15,95.85,JP,1659066221.0
lagos,6.4550575,3.3941795,78.0,100.0,10.33,77.58,NG,1659066221.0
luanda,-8.8272699,13.2439512,92.0,65.0,4.81,67.05,AO,1659066222.0
calella,41.6132925,2.6576102,87.0,2.0,3.15,78.13,ES,1659066222.0
coahuayana,18.6220145,-100.3484789,95.0,33.0,3.42,65.97,MX,1659066223.0
ewa beach,21.315603,-158.008804,56.0,20.0,11.5,85.95,US,1659066223.0
bereda,11.2135,8.392556,93.0,90.0,7.81,67.89,NG,1659066224.0
botou,38.0764217,116.5696393,52.0,4.0,2.57,88.0,CN,1659066224.0
lyuban,59.346325,31.244207,83.0,97.0,4.63,57.54,RU,1659066225.0
los llanos de aridane,28.6592569,-17.9152016,92.0,100.0,19.57,67.75,ES,1659066225.0
bahia blanca,-38.7176522,-62.2654871,57.0,0.0,7.38,44.78,AR,1659066226.0
kargasok,59.0598053,80.8708719,64.0,78.0,12.08,65.46,RU,1659066226.0
hovd,48.0006353,91.6452415,29.0,32.0,5.88,72.77,MN,1659066226.0
puerto berrio,6.4899205,-74.4020634,99.0,96.0,1.68,72.84,CO,1659066227.0
sinnamary,5.3770561,-52.9571586,87.0,85.0,6.87,77.11,GF,1659066227.0
nyurba,63.286648,118.354149,36.0,0.0,11.14,87.01,RU,1659066228.0
ust-kuyga,70.00177,135.549835,52.0,66.0,13.91,75.38,RU,1659066228.0
nikolsk,53.714596,46.085175,80.0,17.0,4.85,67.96,RU,1659066229.0
natal,-5.805398,-35.2080905,94.0,20.0,5.75,75.4,BR,1659066229.0
vanavara,60.345203,102.28093,81.0,99.0,8.43,65.46,RU,1659066230.0
ishim,56.110912,69.473366,79.0,99.0,15.01,63.23,RU,1659066230.0
chernyshevskiy,63.0155918,112.4642349,48.0,17.0,8.63,83.1,RU,1659066231.0
anadyr,64.7316875,177.5060925,71.0,20.0,17.9,51.67,RU,1659066231.0
impfondo,1.6187416,18.0623499,90.0,100.0,2.42,70.66,CG,1659066232.0
grindavik,63.844239,-22.4317498,87.0,75.0,11.5,48.02,IS,1659066232.0
ust-maya,60.416439,134.536499,30.0,0.0,3.76,88.84,RU,1659066232.0
saldanha,-32.9977778,17.9455556,81.0,68.0,20.33,55.67,ZA,1659066233.0
kosikha,58.615772,45.470196,74.0,0.0,6.08,66.18,RU,1659066233.0
bognor regis,50.7834973,-0.6730718,86.0,83.0,9.73,60.98,GB,1659066234.0
aswan,24.091071,32.897306,18.0,0.0,3.44,85.37,EG,1659066234.0
zhenlai,45.8449852,123.1976314,73.0,100.0,3.09,76.33,CN,1659066235.0
guerrero negro,27.9709506,-114.036389,83.0,17.0,12.97,68.85,MX,1659066235.0
artyom,43.3570377,132.1853629,78.0,75.0,13.42,76.59,RU,1659066236.0
pochutla,15.7431834,-96.4660973,91.0,65.0,3.6,79.83,MX,1659066236.0
ribeira grande,37.8225227,-25.5194914,73.0,75.0,3.44,71.94,PT,1659066236.0
filimonovo,54.713123,60.078136,74.0,100.0,13.49,60.35,RU,1659066237.0
fuengirola,36.5387779,-4.6233348,86.0,0.0,4.61,76.84,ES,1659066237.0
kazalinsk,45.76255,62.101181,49.0,100.0,8.01,80.89,KZ,1659066238.0
chernivtsi,48.2864702,25.9376532,60.0,81.0,1.79,70.21,UA,1659066238.0
sioux lookout,50.11345465,-92.19624322619077,89.0,98.0,7.7,57.45,CA,1659066239.0
bitung,1.44344,125.1940836,78.0,93.0,12.06,90.54,ID,1659066239.0
klyuchi,56.318218,160.842178,70.0,84.0,5.1,61.45,RU,1659066240.0
jalalpur jattan,32.64045215,74.20851907318577,78.0,100.0,0.0,82.24,PK,1659066240.0
inirida,3.8650368,-67.9259848,99.0,100.0,1.34,72.23,CO,1659066241.0
ano mera,37.4479184,25.3930026,73.0,20.0,16.11,75.61,GR,1659066241.0
hof,50.3219015,11.9178807,57.0,75.0,1.99,61.75,DE,1659066241.0
peruibe,-24.3218105,-46.9977452,58.0,64.0,6.98,69.24,BR,1659066242.0
methoni,40.4470469,22.5908843,74.0,0.0,4.81,79.83,GR,1659066242.0
yambio,4.5680716,28.39767,98.0,93.0,3.18,65.98,SS,1659066243.0
longlac,49.7,-86.95,95.0,100.0,8.03,55.02,CA,1659066244.0
diego de almagro,-26.3910794,-70.0459281,51.0,66.0,1.28,57.85,CL,1659066244.0
karangampel,-6.4635466,108.4402332,69.0,88.0,12.35,83.97,ID,1659066244.0
kanye,-24.9766112,25.3358859,55.0,23.0,11.32,48.25,BW,1659066245.0
oktyabrskiy,55.6086034,37.9743705,77.0,0.0,8.95,62.4,RU,1659066245.0
gravdal,68.1188562,13.5592962,87.0,100.0,15.43,53.67,NO,1659066246.0
maceio,-9.6476843,-35.7339264,94.0,75.0,4.61,74.21,BR,1659066246.0
san marcos,29.8826436,-97.9405828,66.0,0.0,12.66,87.87,US,1659066247.0
araouane,18.9041133,-3.5275407,27.0,30.0,6.73,93.96,ML,1659066247.0
la ronge,55.1005283,-105.2900485,53.0,75.0,4.61,73.54,CA,1659066248.0
kulu,39.0903057,33.0805302,40.0,0.0,7.81,68.76,TR,1659066248.0
gorontalo,0.5384433,123.0594971,89.0,100.0,5.03,79.18,ID,1659066249.0
san antonio,29.4246002,-98.4951405,63.0,0.0,19.57,88.3,US,1659066118.0
labuhan,-6.891973,112.9897177,58.0,100.0,9.93,85.96,ID,1659066250.0
cabedelo,-6.97324,-34.8351609,82.0,18.0,8.28,72.28,BR,1659066250.0
parkersburg,39.2699565,-81.5506916,93.0,0.0,0.0,74.21,US,1659066088.0
at-bashi,41.1703178,75.8092334,36.0,99.0,5.1,72.79,KG,1659066251.0
brookings,44.311461,-96.79844,83.0,0.0,0.0,63.37,US,1659066251.0
manaure,11.7771128,-72.4469366,76.0,96.0,4.63,80.06,CO,1659066252.0
bani walid,31.7584309,14.0146898,58.0,0.0,2.71,74.68,LY,1659066252.0
goure,13.9861547,10.2645876,66.0,100.0,8.19,77.02,NE,1659066253.0
del rio,29.3655405,-100.894698,30.0,0.0,11.5,96.87,US,1659066253.0
acajutla,13.5897967,-89.8297601,87.0,93.0,3.09,77.47,SV,1659066254.0
lagunas,16.8037482,-95.0709133,92.0,54.0,6.24,73.26,MX,1659066254.0
eston,51.1493598,-108.7530146,39.0,0.0,9.69,71.92,CA,1659066255.0
moose factory,51.2602173,-80.6032819,94.0,100.0,9.22,60.82,CA,1659066255.0
talara,-4.5796872,-81.2718335,82.0,24.0,13.71,64.6,PE,1659066256.0
camara de lobos,32.6483323,-16.9763096,87.0,40.0,13.8,71.76,PT,1659066256.0
nome,64.5011111,-165.4063889,76.0,20.0,8.05,60.17,US,1659066257.0
ekibastuz,51.7228928,75.3169789,47.0,93.0,1.95,75.83,KZ,1659066257.0
agadir,30.4211144,-9.5830626,83.0,0.0,3.44,68.09,MA,1659066258.0
mahina,-17.5058578,-149.4873979,65.0,20.0,6.91,82.31,PF,1659066258.0
trairi,-3.2741504,-39.2649188,86.0,97.0,10.87,77.54,BR,1659066259.0
groningen,53.2190652,6.5680077,57.0,100.0,9.22,59.04,NL,1659066259.0
whyalla,-33.0502707,137.5758835898874,42.0,100.0,7.61,60.73,AU,1659066260.0
